[{"adcode":100000,"lng":116.3683244,"lat":39.915085,"name":"中华人民共和国","level":"country","parent":null},{"adcode":110000,"lng":116.405285,"lat":39.904989,"name":"北京市","level":"province","parent":100000},{"adcode":110101,"lng":116.418757,"lat":39.917544,"name":"东城区","level":"district","parent":110000},{"adcode":110102,"lng":116.366794,"lat":39.915309,"name":"西城区","level":"district","parent":110000},{"adcode":110105,"lng":116.486409,"lat":39.921489,"name":"朝阳区","level":"district","parent":110000},{"adcode":110106,"lng":116.286968,"lat":39.863642,"name":"丰台区","level":"district","parent":110000},{"adcode":110107,"lng":116.195445,"lat":39.914601,"name":"石景山区","level":"district","parent":110000},{"adcode":110108,"lng":116.310316,"lat":39.956074,"name":"海淀区","level":"district","parent":110000},{"adcode":110109,"lng":116.105381,"lat":39.937183,"name":"门头沟区","level":"district","parent":110000},{"adcode":110111,"lng":116.139157,"lat":39.735535,"name":"房山区","level":"district","parent":110000},{"adcode":110112,"lng":116.658603,"lat":39.902486,"name":"通州区","level":"district","parent":110000},{"adcode":110113,"lng":116.653525,"lat":40.128936,"name":"顺义区","level":"district","parent":110000},{"adcode":110114,"lng":116.235906,"lat":40.218085,"name":"昌平区","level":"district","parent":110000},{"adcode":110115,"lng":116.338033,"lat":39.728908,"name":"大兴区","level":"district","parent":110000},{"adcode":110116,"lng":116.637122,"lat":40.324272,"name":"怀柔区","level":"district","parent":110000},{"adcode":110117,"lng":117.112335,"lat":40.144783,"name":"平谷区","level":"district","parent":110000},{"adcode":110118,"lng":116.843352,"lat":40.377362,"name":"密云区","level":"district","parent":110000},{"adcode":110119,"lng":115.985006,"lat":40.465325,"name":"延庆区","level":"district","parent":110000},{"adcode":120000,"lng":117.190182,"lat":39.125596,"name":"天津市","level":"province","parent":100000},{"adcode":120101,"lng":117.195907,"lat":39.118327,"name":"和平区","level":"district","parent":120000},{"adcode":120102,"lng":117.226568,"lat":39.122125,"name":"河东区","level":"district","parent":120000},{"adcode":120103,"lng":117.217536,"lat":39.101897,"name":"河西区","level":"district","parent":120000},{"adcode":120104,"lng":117.164143,"lat":39.120474,"name":"南开区","level":"district","parent":120000},{"adcode":120105,"lng":117.201569,"lat":39.156632,"name":"河北区","level":"district","parent":120000},{"adcode":120106,"lng":117.163301,"lat":39.175066,"name":"红桥区","level":"district","parent":120000},{"adcode":120110,"lng":117.313967,"lat":39.087764,"name":"东丽区","level":"district","parent":120000},{"adcode":120111,"lng":117.012247,"lat":39.139446,"name":"西青区","level":"district","parent":120000},{"adcode":120112,"lng":117.382549,"lat":38.989577,"name":"津南区","level":"district","parent":120000},{"adcode":120113,"lng":117.13482,"lat":39.225555,"name":"北辰区","level":"district","parent":120000},{"adcode":120114,"lng":117.057959,"lat":39.376925,"name":"武清区","level":"district","parent":120000},{"adcode":120115,"lng":117.308094,"lat":39.716965,"name":"宝坻区","level":"district","parent":120000},{"adcode":120116,"lng":117.654173,"lat":39.032846,"name":"滨海新区","level":"district","parent":120000},{"adcode":120117,"lng":117.82828,"lat":39.328886,"name":"宁河区","level":"district","parent":120000},{"adcode":120118,"lng":116.925304,"lat":38.935671,"name":"静海区","level":"district","parent":120000},{"adcode":120119,"lng":117.407449,"lat":40.045342,"name":"蓟州区","level":"district","parent":120000},{"adcode":130000,"lng":114.502461,"lat":38.045474,"name":"河北省","level":"province","parent":100000},{"adcode":130100,"lng":114.502461,"lat":38.045474,"name":"石家庄市","level":"city","parent":130000},{"adcode":130102,"lng":114.548151,"lat":38.047501,"name":"长安区","level":"district","parent":130100},{"adcode":130104,"lng":114.462931,"lat":38.028383,"name":"桥西区","level":"district","parent":130100},{"adcode":130105,"lng":114.465974,"lat":38.067142,"name":"新华区","level":"district","parent":130100},{"adcode":130107,"lng":114.058178,"lat":38.069748,"name":"井陉矿区","level":"district","parent":130100},{"adcode":130108,"lng":114.533257,"lat":38.027696,"name":"裕华区","level":"district","parent":130100},{"adcode":130109,"lng":114.849647,"lat":38.033767,"name":"藁城区","level":"district","parent":130100},{"adcode":130110,"lng":114.321023,"lat":38.093994,"name":"鹿泉区","level":"district","parent":130100},{"adcode":130111,"lng":114.654281,"lat":37.886911,"name":"栾城区","level":"district","parent":130100},{"adcode":130121,"lng":114.144488,"lat":38.033614,"name":"井陉县","level":"district","parent":130100},{"adcode":130123,"lng":114.569887,"lat":38.147835,"name":"正定县","level":"district","parent":130100},{"adcode":130125,"lng":114.552734,"lat":38.437422,"name":"行唐县","level":"district","parent":130100},{"adcode":130126,"lng":114.37946,"lat":38.306546,"name":"灵寿县","level":"district","parent":130100},{"adcode":130127,"lng":114.610699,"lat":37.605714,"name":"高邑县","level":"district","parent":130100},{"adcode":130128,"lng":115.200207,"lat":38.18454,"name":"深泽县","level":"district","parent":130100},{"adcode":130129,"lng":114.387756,"lat":37.660199,"name":"赞皇县","level":"district","parent":130100},{"adcode":130130,"lng":114.977845,"lat":38.176376,"name":"无极县","level":"district","parent":130100},{"adcode":130131,"lng":114.184144,"lat":38.259311,"name":"平山县","level":"district","parent":130100},{"adcode":130132,"lng":114.52618,"lat":37.762514,"name":"元氏县","level":"district","parent":130100},{"adcode":130133,"lng":114.775362,"lat":37.754341,"name":"赵县","level":"district","parent":130100},{"adcode":130181,"lng":115.217451,"lat":37.92904,"name":"辛集市","level":"district","parent":130100},{"adcode":130183,"lng":115.044886,"lat":38.027478,"name":"晋州市","level":"district","parent":130100},{"adcode":130184,"lng":114.68578,"lat":38.344768,"name":"新乐市","level":"district","parent":130100},{"adcode":130200,"lng":118.175393,"lat":39.635113,"name":"唐山市","level":"city","parent":130000},{"adcode":130202,"lng":118.210821,"lat":39.615162,"name":"路南区","level":"district","parent":130200},{"adcode":130203,"lng":118.174736,"lat":39.628538,"name":"路北区","level":"district","parent":130200},{"adcode":130204,"lng":118.45429,"lat":39.715736,"name":"古冶区","level":"district","parent":130200},{"adcode":130205,"lng":118.264425,"lat":39.676171,"name":"开平区","level":"district","parent":130200},{"adcode":130207,"lng":118.110793,"lat":39.56303,"name":"丰南区","level":"district","parent":130200},{"adcode":130208,"lng":118.155779,"lat":39.831363,"name":"丰润区","level":"district","parent":130200},{"adcode":130209,"lng":118.446585,"lat":39.278277,"name":"曹妃甸区","level":"district","parent":130200},{"adcode":130224,"lng":118.681552,"lat":39.506201,"name":"滦南县","level":"district","parent":130200},{"adcode":130225,"lng":118.905341,"lat":39.42813,"name":"乐亭县","level":"district","parent":130200},{"adcode":130227,"lng":118.305139,"lat":40.146238,"name":"迁西县","level":"district","parent":130200},{"adcode":130229,"lng":117.753665,"lat":39.887323,"name":"玉田县","level":"district","parent":130200},{"adcode":130281,"lng":117.965875,"lat":40.188616,"name":"遵化市","level":"district","parent":130200},{"adcode":130283,"lng":118.701933,"lat":40.012108,"name":"迁安市","level":"district","parent":130200},{"adcode":130284,"lng":118.699546,"lat":39.74485,"name":"滦州市","level":"district","parent":130200},{"adcode":130300,"lng":119.586579,"lat":39.942531,"name":"秦皇岛市","level":"city","parent":130000},{"adcode":130302,"lng":119.596224,"lat":39.943458,"name":"海港区","level":"district","parent":130300},{"adcode":130303,"lng":119.753591,"lat":39.998023,"name":"山海关区","level":"district","parent":130300},{"adcode":130304,"lng":119.486286,"lat":39.825121,"name":"北戴河区","level":"district","parent":130300},{"adcode":130306,"lng":119.240651,"lat":39.887053,"name":"抚宁区","level":"district","parent":130300},{"adcode":130321,"lng":118.954555,"lat":40.406023,"name":"青龙满族自治县","level":"district","parent":130300},{"adcode":130322,"lng":119.164541,"lat":39.709729,"name":"昌黎县","level":"district","parent":130300},{"adcode":130324,"lng":118.881809,"lat":39.891639,"name":"卢龙县","level":"district","parent":130300},{"adcode":130400,"lng":114.490686,"lat":36.612273,"name":"邯郸市","level":"city","parent":130000},{"adcode":130402,"lng":114.484989,"lat":36.603196,"name":"邯山区","level":"district","parent":130400},{"adcode":130403,"lng":114.494703,"lat":36.611082,"name":"丛台区","level":"district","parent":130400},{"adcode":130404,"lng":114.458242,"lat":36.615484,"name":"复兴区","level":"district","parent":130400},{"adcode":130406,"lng":114.209936,"lat":36.420487,"name":"峰峰矿区","level":"district","parent":130400},{"adcode":130407,"lng":114.805154,"lat":36.555778,"name":"肥乡区","level":"district","parent":130400},{"adcode":130408,"lng":114.496162,"lat":36.776413,"name":"永年区","level":"district","parent":130400},{"adcode":130423,"lng":114.610703,"lat":36.337604,"name":"临漳县","level":"district","parent":130400},{"adcode":130424,"lng":114.680356,"lat":36.443832,"name":"成安县","level":"district","parent":130400},{"adcode":130425,"lng":115.152586,"lat":36.283316,"name":"大名县","level":"district","parent":130400},{"adcode":130426,"lng":113.673297,"lat":36.563143,"name":"涉县","level":"district","parent":130400},{"adcode":130427,"lng":114.38208,"lat":36.367673,"name":"磁县","level":"district","parent":130400},{"adcode":130430,"lng":115.168584,"lat":36.81325,"name":"邱县","level":"district","parent":130400},{"adcode":130431,"lng":114.878517,"lat":36.914908,"name":"鸡泽县","level":"district","parent":130400},{"adcode":130432,"lng":114.950859,"lat":36.483603,"name":"广平县","level":"district","parent":130400},{"adcode":130433,"lng":115.289057,"lat":36.539461,"name":"馆陶县","level":"district","parent":130400},{"adcode":130434,"lng":114.93411,"lat":36.354248,"name":"魏县","level":"district","parent":130400},{"adcode":130435,"lng":114.957588,"lat":36.773398,"name":"曲周县","level":"district","parent":130400},{"adcode":130481,"lng":114.194581,"lat":36.696115,"name":"武安市","level":"district","parent":130400},{"adcode":130500,"lng":114.508851,"lat":37.0682,"name":"邢台市","level":"city","parent":130000},{"adcode":130502,"lng":114.507131,"lat":37.064125,"name":"襄都区","level":"district","parent":130500},{"adcode":130503,"lng":114.473687,"lat":37.068009,"name":"信都区","level":"district","parent":130500},{"adcode":130505,"lng":114.684469,"lat":37.129952,"name":"任泽区","level":"district","parent":130500},{"adcode":130506,"lng":114.691377,"lat":37.003812,"name":"南和区","level":"district","parent":130500},{"adcode":130522,"lng":114.506873,"lat":37.444009,"name":"临城县","level":"district","parent":130500},{"adcode":130523,"lng":114.511523,"lat":37.287663,"name":"内丘县","level":"district","parent":130500},{"adcode":130524,"lng":114.693382,"lat":37.483596,"name":"柏乡县","level":"district","parent":130500},{"adcode":130525,"lng":114.776348,"lat":37.350925,"name":"隆尧县","level":"district","parent":130500},{"adcode":130528,"lng":114.921027,"lat":37.618956,"name":"宁晋县","level":"district","parent":130500},{"adcode":130529,"lng":115.038782,"lat":37.21768,"name":"巨鹿县","level":"district","parent":130500},{"adcode":130530,"lng":115.247537,"lat":37.526216,"name":"新河县","level":"district","parent":130500},{"adcode":130531,"lng":115.142797,"lat":37.075548,"name":"广宗县","level":"district","parent":130500},{"adcode":130532,"lng":115.029218,"lat":37.069404,"name":"平乡县","level":"district","parent":130500},{"adcode":130533,"lng":115.272749,"lat":36.983272,"name":"威县","level":"district","parent":130500},{"adcode":130534,"lng":115.668999,"lat":37.059991,"name":"清河县","level":"district","parent":130500},{"adcode":130535,"lng":115.498684,"lat":36.8642,"name":"临西县","level":"district","parent":130500},{"adcode":130581,"lng":115.398102,"lat":37.359668,"name":"南宫市","level":"district","parent":130500},{"adcode":130582,"lng":114.504902,"lat":36.861903,"name":"沙河市","level":"district","parent":130500},{"adcode":130600,"lng":115.482331,"lat":38.867657,"name":"保定市","level":"city","parent":130000},{"adcode":130602,"lng":115.470659,"lat":38.88662,"name":"竞秀区","level":"district","parent":130600},{"adcode":130606,"lng":115.500934,"lat":38.865005,"name":"莲池区","level":"district","parent":130600},{"adcode":130607,"lng":115.32442,"lat":38.95138,"name":"满城区","level":"district","parent":130600},{"adcode":130608,"lng":115.492221,"lat":38.771012,"name":"清苑区","level":"district","parent":130600},{"adcode":130609,"lng":115.64941,"lat":39.020395,"name":"徐水区","level":"district","parent":130600},{"adcode":130623,"lng":115.711985,"lat":39.393148,"name":"涞水县","level":"district","parent":130600},{"adcode":130624,"lng":114.198801,"lat":38.847276,"name":"阜平县","level":"district","parent":130600},{"adcode":130626,"lng":115.796895,"lat":39.266195,"name":"定兴县","level":"district","parent":130600},{"adcode":130627,"lng":114.981241,"lat":38.748542,"name":"唐县","level":"district","parent":130600},{"adcode":130628,"lng":115.778878,"lat":38.690092,"name":"高阳县","level":"district","parent":130600},{"adcode":130629,"lng":115.866247,"lat":39.05282,"name":"容城县","level":"district","parent":130600},{"adcode":130630,"lng":114.692567,"lat":39.35755,"name":"涞源县","level":"district","parent":130600},{"adcode":130631,"lng":115.154009,"lat":38.707448,"name":"望都县","level":"district","parent":130600},{"adcode":130632,"lng":115.931979,"lat":38.929912,"name":"安新县","level":"district","parent":130600},{"adcode":130633,"lng":115.501146,"lat":39.35297,"name":"易县","level":"district","parent":130600},{"adcode":130634,"lng":114.704055,"lat":38.619992,"name":"曲阳县","level":"district","parent":130600},{"adcode":130635,"lng":115.583631,"lat":38.496429,"name":"蠡县","level":"district","parent":130600},{"adcode":130636,"lng":115.132749,"lat":38.845127,"name":"顺平县","level":"district","parent":130600},{"adcode":130637,"lng":115.461798,"lat":38.458271,"name":"博野县","level":"district","parent":130600},{"adcode":130638,"lng":116.107474,"lat":38.990819,"name":"雄县","level":"district","parent":130600},{"adcode":130681,"lng":115.973409,"lat":39.485765,"name":"涿州市","level":"district","parent":130600},{"adcode":130682,"lng":114.991389,"lat":38.517602,"name":"定州市","level":"district","parent":130600},{"adcode":130683,"lng":115.33141,"lat":38.421367,"name":"安国市","level":"district","parent":130600},{"adcode":130684,"lng":115.882704,"lat":39.327689,"name":"高碑店市","level":"district","parent":130600},{"adcode":130700,"lng":114.884091,"lat":40.811901,"name":"张家口市","level":"city","parent":130000},{"adcode":130702,"lng":114.885658,"lat":40.813875,"name":"桥东区","level":"district","parent":130700},{"adcode":130703,"lng":114.882127,"lat":40.824385,"name":"桥西区","level":"district","parent":130700},{"adcode":130705,"lng":115.0632,"lat":40.609368,"name":"宣化区","level":"district","parent":130700},{"adcode":130706,"lng":115.281002,"lat":40.488645,"name":"下花园区","level":"district","parent":130700},{"adcode":130708,"lng":114.736131,"lat":40.765136,"name":"万全区","level":"district","parent":130700},{"adcode":130709,"lng":115.281652,"lat":40.971302,"name":"崇礼区","level":"district","parent":130700},{"adcode":130722,"lng":114.715951,"lat":41.151713,"name":"张北县","level":"district","parent":130700},{"adcode":130723,"lng":114.615809,"lat":41.850046,"name":"康保县","level":"district","parent":130700},{"adcode":130724,"lng":115.684836,"lat":41.667419,"name":"沽源县","level":"district","parent":130700},{"adcode":130725,"lng":113.977713,"lat":41.080091,"name":"尚义县","level":"district","parent":130700},{"adcode":130726,"lng":114.582695,"lat":39.837181,"name":"蔚县","level":"district","parent":130700},{"adcode":130727,"lng":114.167343,"lat":40.113419,"name":"阳原县","level":"district","parent":130700},{"adcode":130728,"lng":114.422364,"lat":40.671274,"name":"怀安县","level":"district","parent":130700},{"adcode":130730,"lng":115.520846,"lat":40.405405,"name":"怀来县","level":"district","parent":130700},{"adcode":130731,"lng":115.219246,"lat":40.378701,"name":"涿鹿县","level":"district","parent":130700},{"adcode":130732,"lng":115.832708,"lat":40.912081,"name":"赤城县","level":"district","parent":130700},{"adcode":130800,"lng":117.939152,"lat":40.976204,"name":"承德市","level":"city","parent":130000},{"adcode":130802,"lng":117.939152,"lat":40.976204,"name":"双桥区","level":"district","parent":130800},{"adcode":130803,"lng":117.797485,"lat":40.959756,"name":"双滦区","level":"district","parent":130800},{"adcode":130804,"lng":117.661154,"lat":40.546956,"name":"鹰手营子矿区","level":"district","parent":130800},{"adcode":130821,"lng":118.172496,"lat":40.768637,"name":"承德县","level":"district","parent":130800},{"adcode":130822,"lng":117.507098,"lat":40.418525,"name":"兴隆县","level":"district","parent":130800},{"adcode":130824,"lng":117.337124,"lat":40.936644,"name":"滦平县","level":"district","parent":130800},{"adcode":130825,"lng":117.736343,"lat":41.316667,"name":"隆化县","level":"district","parent":130800},{"adcode":130826,"lng":116.65121,"lat":41.209903,"name":"丰宁满族自治县","level":"district","parent":130800},{"adcode":130827,"lng":118.488642,"lat":40.607981,"name":"宽城满族自治县","level":"district","parent":130800},{"adcode":130828,"lng":117.764086,"lat":41.949404,"name":"围场满族蒙古族自治县","level":"district","parent":130800},{"adcode":130881,"lng":118.690238,"lat":41.00561,"name":"平泉市","level":"district","parent":130800},{"adcode":130900,"lng":116.857461,"lat":38.310582,"name":"沧州市","level":"city","parent":130000},{"adcode":130902,"lng":116.873049,"lat":38.308273,"name":"新华区","level":"district","parent":130900},{"adcode":130903,"lng":116.840063,"lat":38.307405,"name":"运河区","level":"district","parent":130900},{"adcode":130921,"lng":117.007478,"lat":38.219856,"name":"沧县","level":"district","parent":130900},{"adcode":130922,"lng":116.838384,"lat":38.569646,"name":"青县","level":"district","parent":130900},{"adcode":130923,"lng":116.542062,"lat":37.88655,"name":"东光县","level":"district","parent":130900},{"adcode":130924,"lng":117.496606,"lat":38.141582,"name":"海兴县","level":"district","parent":130900},{"adcode":130925,"lng":117.229814,"lat":38.056141,"name":"盐山县","level":"district","parent":130900},{"adcode":130926,"lng":115.835856,"lat":38.427102,"name":"肃宁县","level":"district","parent":130900},{"adcode":130927,"lng":116.709171,"lat":38.042439,"name":"南皮县","level":"district","parent":130900},{"adcode":130928,"lng":116.391512,"lat":37.628182,"name":"吴桥县","level":"district","parent":130900},{"adcode":130929,"lng":116.123844,"lat":38.189661,"name":"献县","level":"district","parent":130900},{"adcode":130930,"lng":117.105104,"lat":38.057953,"name":"孟村回族自治县","level":"district","parent":130900},{"adcode":130981,"lng":116.570163,"lat":38.073479,"name":"泊头市","level":"district","parent":130900},{"adcode":130982,"lng":116.106764,"lat":38.706513,"name":"任丘市","level":"district","parent":130900},{"adcode":130983,"lng":117.343803,"lat":38.369238,"name":"黄骅市","level":"district","parent":130900},{"adcode":130984,"lng":116.089452,"lat":38.44149,"name":"河间市","level":"district","parent":130900},{"adcode":131000,"lng":116.704441,"lat":39.523927,"name":"廊坊市","level":"city","parent":130000},{"adcode":131002,"lng":116.694544,"lat":39.502569,"name":"安次区","level":"district","parent":131000},{"adcode":131003,"lng":116.713708,"lat":39.521931,"name":"广阳区","level":"district","parent":131000},{"adcode":131022,"lng":116.299894,"lat":39.436468,"name":"固安县","level":"district","parent":131000},{"adcode":131023,"lng":116.498089,"lat":39.319717,"name":"永清县","level":"district","parent":131000},{"adcode":131024,"lng":117.007161,"lat":39.757212,"name":"香河县","level":"district","parent":131000},{"adcode":131025,"lng":116.640735,"lat":38.699215,"name":"大城县","level":"district","parent":131000},{"adcode":131026,"lng":116.460107,"lat":38.866801,"name":"文安县","level":"district","parent":131000},{"adcode":131028,"lng":116.986501,"lat":39.889266,"name":"大厂回族自治县","level":"district","parent":131000},{"adcode":131081,"lng":116.392021,"lat":39.117331,"name":"霸州市","level":"district","parent":131000},{"adcode":131082,"lng":117.077018,"lat":39.982778,"name":"三河市","level":"district","parent":131000},{"adcode":131100,"lng":115.665993,"lat":37.735097,"name":"衡水市","level":"city","parent":130000},{"adcode":131102,"lng":115.694945,"lat":37.732237,"name":"桃城区","level":"district","parent":131100},{"adcode":131103,"lng":115.579173,"lat":37.542788,"name":"冀州区","level":"district","parent":131100},{"adcode":131121,"lng":115.726499,"lat":37.511512,"name":"枣强县","level":"district","parent":131100},{"adcode":131122,"lng":115.892415,"lat":37.803774,"name":"武邑县","level":"district","parent":131100},{"adcode":131123,"lng":115.970236,"lat":38.03698,"name":"武强县","level":"district","parent":131100},{"adcode":131124,"lng":115.726577,"lat":38.232671,"name":"饶阳县","level":"district","parent":131100},{"adcode":131125,"lng":115.519627,"lat":38.233511,"name":"安平县","level":"district","parent":131100},{"adcode":131126,"lng":115.966747,"lat":37.350981,"name":"故城县","level":"district","parent":131100},{"adcode":131127,"lng":116.258446,"lat":37.686622,"name":"景县","level":"district","parent":131100},{"adcode":131128,"lng":116.164727,"lat":37.869945,"name":"阜城县","level":"district","parent":131100},{"adcode":131182,"lng":115.554596,"lat":38.00347,"name":"深州市","level":"district","parent":131100},{"adcode":140000,"lng":112.549248,"lat":37.857014,"name":"山西省","level":"province","parent":100000},{"adcode":140100,"lng":112.549248,"lat":37.857014,"name":"太原市","level":"city","parent":140000},{"adcode":140105,"lng":112.564273,"lat":37.817974,"name":"小店区","level":"district","parent":140100},{"adcode":140106,"lng":112.558851,"lat":37.855804,"name":"迎泽区","level":"district","parent":140100},{"adcode":140107,"lng":112.560743,"lat":37.879291,"name":"杏花岭区","level":"district","parent":140100},{"adcode":140108,"lng":112.487122,"lat":37.939893,"name":"尖草坪区","level":"district","parent":140100},{"adcode":140109,"lng":112.522258,"lat":37.862653,"name":"万柏林区","level":"district","parent":140100},{"adcode":140110,"lng":112.477849,"lat":37.715619,"name":"晋源区","level":"district","parent":140100},{"adcode":140121,"lng":112.357961,"lat":37.60729,"name":"清徐县","level":"district","parent":140100},{"adcode":140122,"lng":112.673818,"lat":38.058797,"name":"阳曲县","level":"district","parent":140100},{"adcode":140123,"lng":111.793798,"lat":38.066035,"name":"娄烦县","level":"district","parent":140100},{"adcode":140181,"lng":112.174353,"lat":37.908534,"name":"古交市","level":"district","parent":140100},{"adcode":140200,"lng":113.295259,"lat":40.09031,"name":"大同市","level":"city","parent":140000},{"adcode":140212,"lng":113.141044,"lat":40.258269,"name":"新荣区","level":"district","parent":140200},{"adcode":140213,"lng":113.298027,"lat":40.075667,"name":"平城区","level":"district","parent":140200},{"adcode":140214,"lng":113.149693,"lat":40.005405,"name":"云冈区","level":"district","parent":140200},{"adcode":140215,"lng":113.61244,"lat":40.040295,"name":"云州区","level":"district","parent":140200},{"adcode":140221,"lng":113.749871,"lat":40.364927,"name":"阳高县","level":"district","parent":140200},{"adcode":140222,"lng":114.09112,"lat":40.421336,"name":"天镇县","level":"district","parent":140200},{"adcode":140223,"lng":114.279252,"lat":39.763051,"name":"广灵县","level":"district","parent":140200},{"adcode":140224,"lng":114.23576,"lat":39.438867,"name":"灵丘县","level":"district","parent":140200},{"adcode":140225,"lng":113.698091,"lat":39.699099,"name":"浑源县","level":"district","parent":140200},{"adcode":140226,"lng":112.70641,"lat":40.012873,"name":"左云县","level":"district","parent":140200},{"adcode":140300,"lng":113.583285,"lat":37.861188,"name":"阳泉市","level":"city","parent":140000},{"adcode":140302,"lng":113.586513,"lat":37.860938,"name":"城区","level":"district","parent":140300},{"adcode":140303,"lng":113.559066,"lat":37.870085,"name":"矿区","level":"district","parent":140300},{"adcode":140311,"lng":113.58664,"lat":37.94096,"name":"郊区","level":"district","parent":140300},{"adcode":140321,"lng":113.631049,"lat":37.800289,"name":"平定县","level":"district","parent":140300},{"adcode":140322,"lng":113.41223,"lat":38.086131,"name":"盂县","level":"district","parent":140300},{"adcode":140400,"lng":113.113556,"lat":36.191112,"name":"长治市","level":"city","parent":140000},{"adcode":140403,"lng":113.114107,"lat":36.187895,"name":"潞州区","level":"district","parent":140400},{"adcode":140404,"lng":113.056679,"lat":36.052438,"name":"上党区","level":"district","parent":140400},{"adcode":140405,"lng":112.892741,"lat":36.314072,"name":"屯留区","level":"district","parent":140400},{"adcode":140406,"lng":113.223245,"lat":36.332232,"name":"潞城区","level":"district","parent":140400},{"adcode":140423,"lng":113.050094,"lat":36.532854,"name":"襄垣县","level":"district","parent":140400},{"adcode":140425,"lng":113.438791,"lat":36.200202,"name":"平顺县","level":"district","parent":140400},{"adcode":140426,"lng":113.387366,"lat":36.502971,"name":"黎城县","level":"district","parent":140400},{"adcode":140427,"lng":113.206138,"lat":36.110938,"name":"壶关县","level":"district","parent":140400},{"adcode":140428,"lng":112.884656,"lat":36.119484,"name":"长子县","level":"district","parent":140400},{"adcode":140429,"lng":112.8653,"lat":36.834315,"name":"武乡县","level":"district","parent":140400},{"adcode":140430,"lng":112.70138,"lat":36.757123,"name":"沁县","level":"district","parent":140400},{"adcode":140431,"lng":112.340878,"lat":36.500777,"name":"沁源县","level":"district","parent":140400},{"adcode":140500,"lng":112.851274,"lat":35.497553,"name":"晋城市","level":"city","parent":140000},{"adcode":140502,"lng":112.853106,"lat":35.496641,"name":"城区","level":"district","parent":140500},{"adcode":140521,"lng":112.187213,"lat":35.689472,"name":"沁水县","level":"district","parent":140500},{"adcode":140522,"lng":112.422014,"lat":35.482177,"name":"阳城县","level":"district","parent":140500},{"adcode":140524,"lng":113.278877,"lat":35.775614,"name":"陵川县","level":"district","parent":140500},{"adcode":140525,"lng":112.899137,"lat":35.617221,"name":"泽州县","level":"district","parent":140500},{"adcode":140581,"lng":112.930691,"lat":35.791355,"name":"高平市","level":"district","parent":140500},{"adcode":140600,"lng":112.433387,"lat":39.331261,"name":"朔州市","level":"city","parent":140000},{"adcode":140602,"lng":112.428676,"lat":39.324525,"name":"朔城区","level":"district","parent":140600},{"adcode":140603,"lng":112.295227,"lat":39.515603,"name":"平鲁区","level":"district","parent":140600},{"adcode":140621,"lng":112.816396,"lat":39.52677,"name":"山阴县","level":"district","parent":140600},{"adcode":140622,"lng":113.187505,"lat":39.559187,"name":"应县","level":"district","parent":140600},{"adcode":140623,"lng":112.465588,"lat":39.988812,"name":"右玉县","level":"district","parent":140600},{"adcode":140681,"lng":113.100511,"lat":39.820789,"name":"怀仁市","level":"district","parent":140600},{"adcode":140700,"lng":112.736465,"lat":37.696495,"name":"晋中市","level":"city","parent":140000},{"adcode":140702,"lng":112.740056,"lat":37.6976,"name":"榆次区","level":"district","parent":140700},{"adcode":140703,"lng":112.554103,"lat":37.424595,"name":"太谷区","level":"district","parent":140700},{"adcode":140721,"lng":112.973521,"lat":37.069019,"name":"榆社县","level":"district","parent":140700},{"adcode":140722,"lng":113.377834,"lat":37.079672,"name":"左权县","level":"district","parent":140700},{"adcode":140723,"lng":113.572919,"lat":37.327027,"name":"和顺县","level":"district","parent":140700},{"adcode":140724,"lng":113.706166,"lat":37.60437,"name":"昔阳县","level":"district","parent":140700},{"adcode":140725,"lng":113.177708,"lat":37.891136,"name":"寿阳县","level":"district","parent":140700},{"adcode":140727,"lng":112.330532,"lat":37.358739,"name":"祁县","level":"district","parent":140700},{"adcode":140728,"lng":112.174059,"lat":37.195474,"name":"平遥县","level":"district","parent":140700},{"adcode":140729,"lng":111.772759,"lat":36.847469,"name":"灵石县","level":"district","parent":140700},{"adcode":140781,"lng":111.913857,"lat":37.027616,"name":"介休市","level":"district","parent":140700},{"adcode":140800,"lng":111.003957,"lat":35.022778,"name":"运城市","level":"city","parent":140000},{"adcode":140802,"lng":111.000627,"lat":35.025643,"name":"盐湖区","level":"district","parent":140800},{"adcode":140821,"lng":110.77493,"lat":35.141883,"name":"临猗县","level":"district","parent":140800},{"adcode":140822,"lng":110.843561,"lat":35.417042,"name":"万荣县","level":"district","parent":140800},{"adcode":140823,"lng":111.220306,"lat":35.353839,"name":"闻喜县","level":"district","parent":140800},{"adcode":140824,"lng":110.978996,"lat":35.600412,"name":"稷山县","level":"district","parent":140800},{"adcode":140825,"lng":111.225205,"lat":35.613697,"name":"新绛县","level":"district","parent":140800},{"adcode":140826,"lng":111.576182,"lat":35.49045,"name":"绛县","level":"district","parent":140800},{"adcode":140827,"lng":111.67099,"lat":35.298293,"name":"垣曲县","level":"district","parent":140800},{"adcode":140828,"lng":111.223174,"lat":35.140441,"name":"夏县","level":"district","parent":140800},{"adcode":140829,"lng":111.212377,"lat":34.837256,"name":"平陆县","level":"district","parent":140800},{"adcode":140830,"lng":110.69114,"lat":34.694769,"name":"芮城县","level":"district","parent":140800},{"adcode":140881,"lng":110.447984,"lat":34.865125,"name":"永济市","level":"district","parent":140800},{"adcode":140882,"lng":110.710268,"lat":35.59715,"name":"河津市","level":"district","parent":140800},{"adcode":140900,"lng":112.733538,"lat":38.41769,"name":"忻州市","level":"city","parent":140000},{"adcode":140902,"lng":112.734112,"lat":38.417743,"name":"忻府区","level":"district","parent":140900},{"adcode":140921,"lng":112.963231,"lat":38.484948,"name":"定襄县","level":"district","parent":140900},{"adcode":140922,"lng":113.259012,"lat":38.725711,"name":"五台县","level":"district","parent":140900},{"adcode":140923,"lng":112.962519,"lat":39.065138,"name":"代县","level":"district","parent":140900},{"adcode":140924,"lng":113.267707,"lat":39.188104,"name":"繁峙县","level":"district","parent":140900},{"adcode":140925,"lng":112.307936,"lat":39.001718,"name":"宁武县","level":"district","parent":140900},{"adcode":140926,"lng":111.940231,"lat":38.355947,"name":"静乐县","level":"district","parent":140900},{"adcode":140927,"lng":112.200438,"lat":39.088467,"name":"神池县","level":"district","parent":140900},{"adcode":140928,"lng":111.841015,"lat":38.912761,"name":"五寨县","level":"district","parent":140900},{"adcode":140929,"lng":111.56981,"lat":38.705625,"name":"岢岚县","level":"district","parent":140900},{"adcode":140930,"lng":111.146609,"lat":39.381895,"name":"河曲县","level":"district","parent":140900},{"adcode":140931,"lng":111.085688,"lat":39.022576,"name":"保德县","level":"district","parent":140900},{"adcode":140932,"lng":111.500477,"lat":39.442153,"name":"偏关县","level":"district","parent":140900},{"adcode":140981,"lng":112.713132,"lat":38.729186,"name":"原平市","level":"district","parent":140900},{"adcode":141000,"lng":111.517973,"lat":36.08415,"name":"临汾市","level":"city","parent":140000},{"adcode":141002,"lng":111.522945,"lat":36.080366,"name":"尧都区","level":"district","parent":141000},{"adcode":141021,"lng":111.475529,"lat":35.641387,"name":"曲沃县","level":"district","parent":141000},{"adcode":141022,"lng":111.713508,"lat":35.738621,"name":"翼城县","level":"district","parent":141000},{"adcode":141023,"lng":111.442932,"lat":35.876139,"name":"襄汾县","level":"district","parent":141000},{"adcode":141024,"lng":111.673692,"lat":36.255742,"name":"洪洞县","level":"district","parent":141000},{"adcode":141025,"lng":111.920207,"lat":36.26855,"name":"古县","level":"district","parent":141000},{"adcode":141026,"lng":112.251372,"lat":36.146032,"name":"安泽县","level":"district","parent":141000},{"adcode":141027,"lng":111.850039,"lat":35.971359,"name":"浮山县","level":"district","parent":141000},{"adcode":141028,"lng":110.682853,"lat":36.099355,"name":"吉县","level":"district","parent":141000},{"adcode":141029,"lng":110.857365,"lat":35.975402,"name":"乡宁县","level":"district","parent":141000},{"adcode":141030,"lng":110.751283,"lat":36.46383,"name":"大宁县","level":"district","parent":141000},{"adcode":141031,"lng":110.935809,"lat":36.692675,"name":"隰县","level":"district","parent":141000},{"adcode":141032,"lng":110.631276,"lat":36.760614,"name":"永和县","level":"district","parent":141000},{"adcode":141033,"lng":111.09733,"lat":36.411682,"name":"蒲县","level":"district","parent":141000},{"adcode":141034,"lng":111.563021,"lat":36.653368,"name":"汾西县","level":"district","parent":141000},{"adcode":141081,"lng":111.371272,"lat":35.620302,"name":"侯马市","level":"district","parent":141000},{"adcode":141082,"lng":111.723103,"lat":36.57202,"name":"霍州市","level":"district","parent":141000},{"adcode":141100,"lng":111.134335,"lat":37.524366,"name":"吕梁市","level":"city","parent":140000},{"adcode":141102,"lng":111.134462,"lat":37.524037,"name":"离石区","level":"district","parent":141100},{"adcode":141121,"lng":112.032595,"lat":37.436314,"name":"文水县","level":"district","parent":141100},{"adcode":141122,"lng":112.159154,"lat":37.555155,"name":"交城县","level":"district","parent":141100},{"adcode":141123,"lng":111.124816,"lat":38.464136,"name":"兴县","level":"district","parent":141100},{"adcode":141124,"lng":110.995963,"lat":37.960806,"name":"临县","level":"district","parent":141100},{"adcode":141125,"lng":110.89613,"lat":37.431664,"name":"柳林县","level":"district","parent":141100},{"adcode":141126,"lng":110.837119,"lat":36.999426,"name":"石楼县","level":"district","parent":141100},{"adcode":141127,"lng":111.671555,"lat":38.278654,"name":"岚县","level":"district","parent":141100},{"adcode":141128,"lng":111.238885,"lat":37.892632,"name":"方山县","level":"district","parent":141100},{"adcode":141129,"lng":111.193319,"lat":37.342054,"name":"中阳县","level":"district","parent":141100},{"adcode":141130,"lng":111.183188,"lat":36.983068,"name":"交口县","level":"district","parent":141100},{"adcode":141181,"lng":111.781568,"lat":37.144474,"name":"孝义市","level":"district","parent":141100},{"adcode":141182,"lng":111.785273,"lat":37.267742,"name":"汾阳市","level":"district","parent":141100},{"adcode":150000,"lng":111.670801,"lat":40.818311,"name":"内蒙古自治区","level":"province","parent":100000},{"adcode":150100,"lng":111.670801,"lat":40.818311,"name":"呼和浩特市","level":"city","parent":150000},{"adcode":150102,"lng":111.685964,"lat":40.826225,"name":"新城区","level":"district","parent":150100},{"adcode":150103,"lng":111.662162,"lat":40.815149,"name":"回民区","level":"district","parent":150100},{"adcode":150104,"lng":111.66543,"lat":40.799421,"name":"玉泉区","level":"district","parent":150100},{"adcode":150105,"lng":111.698463,"lat":40.807834,"name":"赛罕区","level":"district","parent":150100},{"adcode":150121,"lng":111.133615,"lat":40.720416,"name":"土默特左旗","level":"district","parent":150100},{"adcode":150122,"lng":111.197317,"lat":40.276729,"name":"托克托县","level":"district","parent":150100},{"adcode":150123,"lng":111.824143,"lat":40.380288,"name":"和林格尔县","level":"district","parent":150100},{"adcode":150124,"lng":111.67222,"lat":39.912479,"name":"清水河县","level":"district","parent":150100},{"adcode":150125,"lng":111.456563,"lat":41.094483,"name":"武川县","level":"district","parent":150100},{"adcode":150200,"lng":109.840405,"lat":40.658168,"name":"包头市","level":"city","parent":150000},{"adcode":150202,"lng":110.026895,"lat":40.587056,"name":"东河区","level":"district","parent":150200},{"adcode":150203,"lng":109.822932,"lat":40.661345,"name":"昆都仑区","level":"district","parent":150200},{"adcode":150204,"lng":109.880049,"lat":40.668558,"name":"青山区","level":"district","parent":150200},{"adcode":150205,"lng":110.272565,"lat":40.672094,"name":"石拐区","level":"district","parent":150200},{"adcode":150206,"lng":109.97016,"lat":41.769246,"name":"白云鄂博矿区","level":"district","parent":150200},{"adcode":150207,"lng":109.968122,"lat":40.600581,"name":"九原区","level":"district","parent":150200},{"adcode":150221,"lng":110.526766,"lat":40.566434,"name":"土默特右旗","level":"district","parent":150200},{"adcode":150222,"lng":110.063421,"lat":41.030004,"name":"固阳县","level":"district","parent":150200},{"adcode":150223,"lng":110.438452,"lat":41.702836,"name":"达尔罕茂明安联合旗","level":"district","parent":150200},{"adcode":150300,"lng":106.825563,"lat":39.673734,"name":"乌海市","level":"city","parent":150000},{"adcode":150302,"lng":106.817762,"lat":39.673527,"name":"海勃湾区","level":"district","parent":150300},{"adcode":150303,"lng":106.884789,"lat":39.44153,"name":"海南区","level":"district","parent":150300},{"adcode":150304,"lng":106.722711,"lat":39.502288,"name":"乌达区","level":"district","parent":150300},{"adcode":150400,"lng":118.956806,"lat":42.275317,"name":"赤峰市","level":"city","parent":150000},{"adcode":150402,"lng":118.961087,"lat":42.269732,"name":"红山区","level":"district","parent":150400},{"adcode":150403,"lng":119.289877,"lat":42.041168,"name":"元宝山区","level":"district","parent":150400},{"adcode":150404,"lng":118.938958,"lat":42.281046,"name":"松山区","level":"district","parent":150400},{"adcode":150421,"lng":120.094969,"lat":43.87877,"name":"阿鲁科尔沁旗","level":"district","parent":150400},{"adcode":150422,"lng":119.391737,"lat":43.980715,"name":"巴林左旗","level":"district","parent":150400},{"adcode":150423,"lng":118.678347,"lat":43.528963,"name":"巴林右旗","level":"district","parent":150400},{"adcode":150424,"lng":118.05775,"lat":43.605326,"name":"林西县","level":"district","parent":150400},{"adcode":150425,"lng":117.542465,"lat":43.256233,"name":"克什克腾旗","level":"district","parent":150400},{"adcode":150426,"lng":119.022619,"lat":42.937128,"name":"翁牛特旗","level":"district","parent":150400},{"adcode":150428,"lng":118.708572,"lat":41.92778,"name":"喀喇沁旗","level":"district","parent":150400},{"adcode":150429,"lng":119.339242,"lat":41.598692,"name":"宁城县","level":"district","parent":150400},{"adcode":150430,"lng":119.906486,"lat":42.287012,"name":"敖汉旗","level":"district","parent":150400},{"adcode":150500,"lng":122.263119,"lat":43.617429,"name":"通辽市","level":"city","parent":150000},{"adcode":150502,"lng":122.264042,"lat":43.617422,"name":"科尔沁区","level":"district","parent":150500},{"adcode":150521,"lng":123.313873,"lat":44.127166,"name":"科尔沁左翼中旗","level":"district","parent":150500},{"adcode":150522,"lng":122.355155,"lat":42.954564,"name":"科尔沁左翼后旗","level":"district","parent":150500},{"adcode":150523,"lng":121.308797,"lat":43.602432,"name":"开鲁县","level":"district","parent":150500},{"adcode":150524,"lng":121.774886,"lat":42.734692,"name":"库伦旗","level":"district","parent":150500},{"adcode":150525,"lng":120.662543,"lat":42.84685,"name":"奈曼旗","level":"district","parent":150500},{"adcode":150526,"lng":120.905275,"lat":44.555294,"name":"扎鲁特旗","level":"district","parent":150500},{"adcode":150581,"lng":119.657862,"lat":45.532361,"name":"霍林郭勒市","level":"district","parent":150500},{"adcode":150600,"lng":109.99029,"lat":39.817179,"name":"鄂尔多斯市","level":"city","parent":150000},{"adcode":150602,"lng":109.98945,"lat":39.81788,"name":"东胜区","level":"district","parent":150600},{"adcode":150603,"lng":109.790076,"lat":39.607472,"name":"康巴什区","level":"district","parent":150600},{"adcode":150621,"lng":110.040281,"lat":40.404076,"name":"达拉特旗","level":"district","parent":150600},{"adcode":150622,"lng":111.238332,"lat":39.865221,"name":"准格尔旗","level":"district","parent":150600},{"adcode":150623,"lng":107.48172,"lat":38.183257,"name":"鄂托克前旗","level":"district","parent":150600},{"adcode":150624,"lng":107.982604,"lat":39.095752,"name":"鄂托克旗","level":"district","parent":150600},{"adcode":150625,"lng":108.736324,"lat":39.831789,"name":"杭锦旗","level":"district","parent":150600},{"adcode":150626,"lng":108.842454,"lat":38.596611,"name":"乌审旗","level":"district","parent":150600},{"adcode":150627,"lng":109.787402,"lat":39.604312,"name":"伊金霍洛旗","level":"district","parent":150600},{"adcode":150700,"lng":119.758168,"lat":49.215333,"name":"呼伦贝尔市","level":"city","parent":150000},{"adcode":150702,"lng":119.764923,"lat":49.213889,"name":"海拉尔区","level":"district","parent":150700},{"adcode":150703,"lng":117.716373,"lat":49.456567,"name":"扎赉诺尔区","level":"district","parent":150700},{"adcode":150721,"lng":123.464615,"lat":48.130503,"name":"阿荣旗","level":"district","parent":150700},{"adcode":150722,"lng":124.507401,"lat":48.478385,"name":"莫力达瓦达斡尔族自治旗","level":"district","parent":150700},{"adcode":150723,"lng":123.725684,"lat":50.590177,"name":"鄂伦春自治旗","level":"district","parent":150700},{"adcode":150724,"lng":119.754041,"lat":49.143293,"name":"鄂温克族自治旗","level":"district","parent":150700},{"adcode":150725,"lng":119.437609,"lat":49.328422,"name":"陈巴尔虎旗","level":"district","parent":150700},{"adcode":150726,"lng":118.267454,"lat":48.216571,"name":"新巴尔虎左旗","level":"district","parent":150700},{"adcode":150727,"lng":116.825991,"lat":48.669134,"name":"新巴尔虎右旗","level":"district","parent":150700},{"adcode":150781,"lng":117.455561,"lat":49.590788,"name":"满洲里市","level":"district","parent":150700},{"adcode":150782,"lng":120.729005,"lat":49.287024,"name":"牙克石市","level":"district","parent":150700},{"adcode":150783,"lng":122.744401,"lat":48.007412,"name":"扎兰屯市","level":"district","parent":150700},{"adcode":150784,"lng":120.178636,"lat":50.2439,"name":"额尔古纳市","level":"district","parent":150700},{"adcode":150785,"lng":121.532724,"lat":50.780454,"name":"根河市","level":"district","parent":150700},{"adcode":150800,"lng":107.416959,"lat":40.757402,"name":"巴彦淖尔市","level":"city","parent":150000},{"adcode":150802,"lng":107.417018,"lat":40.757092,"name":"临河区","level":"district","parent":150800},{"adcode":150821,"lng":108.270658,"lat":41.097639,"name":"五原县","level":"district","parent":150800},{"adcode":150822,"lng":107.006056,"lat":40.330479,"name":"磴口县","level":"district","parent":150800},{"adcode":150823,"lng":108.656816,"lat":40.725209,"name":"乌拉特前旗","level":"district","parent":150800},{"adcode":150824,"lng":108.515255,"lat":41.57254,"name":"乌拉特中旗","level":"district","parent":150800},{"adcode":150825,"lng":107.074941,"lat":41.084307,"name":"乌拉特后旗","level":"district","parent":150800},{"adcode":150826,"lng":107.147682,"lat":40.888797,"name":"杭锦后旗","level":"district","parent":150800},{"adcode":150900,"lng":113.114543,"lat":41.034126,"name":"乌兰察布市","level":"city","parent":150000},{"adcode":150902,"lng":113.116453,"lat":41.034134,"name":"集宁区","level":"district","parent":150900},{"adcode":150921,"lng":112.577702,"lat":40.89576,"name":"卓资县","level":"district","parent":150900},{"adcode":150922,"lng":114.01008,"lat":41.899335,"name":"化德县","level":"district","parent":150900},{"adcode":150923,"lng":113.560643,"lat":41.560163,"name":"商都县","level":"district","parent":150900},{"adcode":150924,"lng":113.834009,"lat":40.872437,"name":"兴和县","level":"district","parent":150900},{"adcode":150925,"lng":112.500911,"lat":40.531627,"name":"凉城县","level":"district","parent":150900},{"adcode":150926,"lng":113.211958,"lat":40.786859,"name":"察哈尔右翼前旗","level":"district","parent":150900},{"adcode":150927,"lng":112.633563,"lat":41.274212,"name":"察哈尔右翼中旗","level":"district","parent":150900},{"adcode":150928,"lng":113.1906,"lat":41.447213,"name":"察哈尔右翼后旗","level":"district","parent":150900},{"adcode":150929,"lng":111.70123,"lat":41.528114,"name":"四子王旗","level":"district","parent":150900},{"adcode":150981,"lng":113.163462,"lat":40.437534,"name":"丰镇市","level":"district","parent":150900},{"adcode":152200,"lng":122.070317,"lat":46.076268,"name":"兴安盟","level":"city","parent":150000},{"adcode":152201,"lng":122.068975,"lat":46.077238,"name":"乌兰浩特市","level":"district","parent":152200},{"adcode":152202,"lng":119.943656,"lat":47.177,"name":"阿尔山市","level":"district","parent":152200},{"adcode":152221,"lng":121.957544,"lat":46.076497,"name":"科尔沁右翼前旗","level":"district","parent":152200},{"adcode":152222,"lng":121.472818,"lat":45.059645,"name":"科尔沁右翼中旗","level":"district","parent":152200},{"adcode":152223,"lng":122.909332,"lat":46.725136,"name":"扎赉特旗","level":"district","parent":152200},{"adcode":152224,"lng":121.564856,"lat":45.380986,"name":"突泉县","level":"district","parent":152200},{"adcode":152500,"lng":116.090996,"lat":43.944018,"name":"锡林郭勒盟","level":"city","parent":150000},{"adcode":152501,"lng":111.97981,"lat":43.652895,"name":"二连浩特市","level":"district","parent":152500},{"adcode":152502,"lng":116.091903,"lat":43.944301,"name":"锡林浩特市","level":"district","parent":152500},{"adcode":152522,"lng":114.970618,"lat":44.022728,"name":"阿巴嘎旗","level":"district","parent":152500},{"adcode":152523,"lng":113.653412,"lat":43.854108,"name":"苏尼特左旗","level":"district","parent":152500},{"adcode":152524,"lng":112.65539,"lat":42.746662,"name":"苏尼特右旗","level":"district","parent":152500},{"adcode":152525,"lng":116.980022,"lat":45.510307,"name":"东乌珠穆沁旗","level":"district","parent":152500},{"adcode":152526,"lng":117.615249,"lat":44.586147,"name":"西乌珠穆沁旗","level":"district","parent":152500},{"adcode":152527,"lng":115.28728,"lat":41.895199,"name":"太仆寺旗","level":"district","parent":152500},{"adcode":152528,"lng":113.843869,"lat":42.239229,"name":"镶黄旗","level":"district","parent":152500},{"adcode":152529,"lng":115.031423,"lat":42.286807,"name":"正镶白旗","level":"district","parent":152500},{"adcode":152530,"lng":116.003311,"lat":42.245895,"name":"正蓝旗","level":"district","parent":152500},{"adcode":152531,"lng":116.477288,"lat":42.197962,"name":"多伦县","level":"district","parent":152500},{"adcode":152900,"lng":105.706422,"lat":38.844814,"name":"阿拉善盟","level":"city","parent":150000},{"adcode":152921,"lng":105.70192,"lat":38.847241,"name":"阿拉善左旗","level":"district","parent":152900},{"adcode":152922,"lng":101.671984,"lat":39.21159,"name":"阿拉善右旗","level":"district","parent":152900},{"adcode":152923,"lng":101.06944,"lat":41.958813,"name":"额济纳旗","level":"district","parent":152900},{"adcode":210000,"lng":123.429096,"lat":41.796767,"name":"辽宁省","level":"province","parent":100000},{"adcode":210100,"lng":123.429096,"lat":41.796767,"name":"沈阳市","level":"city","parent":210000},{"adcode":210102,"lng":123.406664,"lat":41.788074,"name":"和平区","level":"district","parent":210100},{"adcode":210103,"lng":123.445696,"lat":41.795591,"name":"沈河区","level":"district","parent":210100},{"adcode":210104,"lng":123.469956,"lat":41.808503,"name":"大东区","level":"district","parent":210100},{"adcode":210105,"lng":123.405677,"lat":41.822336,"name":"皇姑区","level":"district","parent":210100},{"adcode":210106,"lng":123.350664,"lat":41.787808,"name":"铁西区","level":"district","parent":210100},{"adcode":210111,"lng":123.341604,"lat":41.665904,"name":"苏家屯区","level":"district","parent":210100},{"adcode":210112,"lng":123.458981,"lat":41.741946,"name":"浑南区","level":"district","parent":210100},{"adcode":210113,"lng":123.521471,"lat":42.052312,"name":"沈北新区","level":"district","parent":210100},{"adcode":210114,"lng":123.310829,"lat":41.795833,"name":"于洪区","level":"district","parent":210100},{"adcode":210115,"lng":122.731269,"lat":41.512725,"name":"辽中区","level":"district","parent":210100},{"adcode":210123,"lng":123.352703,"lat":42.741533,"name":"康平县","level":"district","parent":210100},{"adcode":210124,"lng":123.416722,"lat":42.507045,"name":"法库县","level":"district","parent":210100},{"adcode":210181,"lng":122.828868,"lat":41.996508,"name":"新民市","level":"district","parent":210100},{"adcode":210200,"lng":121.618622,"lat":38.91459,"name":"大连市","level":"city","parent":210000},{"adcode":210202,"lng":121.64376,"lat":38.921553,"name":"中山区","level":"district","parent":210200},{"adcode":210203,"lng":121.616112,"lat":38.914266,"name":"西岗区","level":"district","parent":210200},{"adcode":210204,"lng":121.593702,"lat":38.912859,"name":"沙河口区","level":"district","parent":210200},{"adcode":210211,"lng":121.582614,"lat":38.975148,"name":"甘井子区","level":"district","parent":210200},{"adcode":210212,"lng":121.26713,"lat":38.812043,"name":"旅顺口区","level":"district","parent":210200},{"adcode":210213,"lng":121.789413,"lat":39.052745,"name":"金州区","level":"district","parent":210200},{"adcode":210214,"lng":121.9705,"lat":39.401555,"name":"普兰店区","level":"district","parent":210200},{"adcode":210224,"lng":122.587824,"lat":39.272399,"name":"长海县","level":"district","parent":210200},{"adcode":210281,"lng":122.002656,"lat":39.63065,"name":"瓦房店市","level":"district","parent":210200},{"adcode":210283,"lng":122.970612,"lat":39.69829,"name":"庄河市","level":"district","parent":210200},{"adcode":210300,"lng":122.995632,"lat":41.110626,"name":"鞍山市","level":"city","parent":210000},{"adcode":210302,"lng":122.994475,"lat":41.110344,"name":"铁东区","level":"district","parent":210300},{"adcode":210303,"lng":122.971834,"lat":41.11069,"name":"铁西区","level":"district","parent":210300},{"adcode":210304,"lng":123.024806,"lat":41.150622,"name":"立山区","level":"district","parent":210300},{"adcode":210311,"lng":122.949298,"lat":41.068909,"name":"千山区","level":"district","parent":210300},{"adcode":210321,"lng":122.429736,"lat":41.38686,"name":"台安县","level":"district","parent":210300},{"adcode":210323,"lng":123.28833,"lat":40.281509,"name":"岫岩满族自治县","level":"district","parent":210300},{"adcode":210381,"lng":122.752199,"lat":40.852533,"name":"海城市","level":"district","parent":210300},{"adcode":210400,"lng":123.921109,"lat":41.875956,"name":"抚顺市","level":"city","parent":210000},{"adcode":210402,"lng":123.902858,"lat":41.86082,"name":"新抚区","level":"district","parent":210400},{"adcode":210403,"lng":124.047219,"lat":41.866829,"name":"东洲区","level":"district","parent":210400},{"adcode":210404,"lng":123.801509,"lat":41.851803,"name":"望花区","level":"district","parent":210400},{"adcode":210411,"lng":123.917165,"lat":41.881132,"name":"顺城区","level":"district","parent":210400},{"adcode":210421,"lng":124.097979,"lat":41.922644,"name":"抚顺县","level":"district","parent":210400},{"adcode":210422,"lng":125.037547,"lat":41.732456,"name":"新宾满族自治县","level":"district","parent":210400},{"adcode":210423,"lng":124.927192,"lat":42.10135,"name":"清原满族自治县","level":"district","parent":210400},{"adcode":210500,"lng":123.770519,"lat":41.297909,"name":"本溪市","level":"city","parent":210000},{"adcode":210502,"lng":123.761231,"lat":41.291581,"name":"平山区","level":"district","parent":210500},{"adcode":210503,"lng":123.765226,"lat":41.330056,"name":"溪湖区","level":"district","parent":210500},{"adcode":210504,"lng":123.763288,"lat":41.302429,"name":"明山区","level":"district","parent":210500},{"adcode":210505,"lng":123.748381,"lat":41.104093,"name":"南芬区","level":"district","parent":210500},{"adcode":210521,"lng":124.126156,"lat":41.300344,"name":"本溪满族自治县","level":"district","parent":210500},{"adcode":210522,"lng":125.359195,"lat":41.268997,"name":"桓仁满族自治县","level":"district","parent":210500},{"adcode":210600,"lng":124.383044,"lat":40.124296,"name":"丹东市","level":"city","parent":210000},{"adcode":210602,"lng":124.397814,"lat":40.136483,"name":"元宝区","level":"district","parent":210600},{"adcode":210603,"lng":124.361153,"lat":40.102801,"name":"振兴区","level":"district","parent":210600},{"adcode":210604,"lng":124.427709,"lat":40.158557,"name":"振安区","level":"district","parent":210600},{"adcode":210624,"lng":124.784867,"lat":40.730412,"name":"宽甸满族自治县","level":"district","parent":210600},{"adcode":210681,"lng":124.149437,"lat":39.883467,"name":"东港市","level":"district","parent":210600},{"adcode":210682,"lng":124.071067,"lat":40.457567,"name":"凤城市","level":"district","parent":210600},{"adcode":210700,"lng":121.135742,"lat":41.119269,"name":"锦州市","level":"city","parent":210000},{"adcode":210702,"lng":121.130085,"lat":41.115719,"name":"古塔区","level":"district","parent":210700},{"adcode":210703,"lng":121.151304,"lat":41.114662,"name":"凌河区","level":"district","parent":210700},{"adcode":210711,"lng":121.107297,"lat":41.105378,"name":"太和区","level":"district","parent":210700},{"adcode":210726,"lng":122.117915,"lat":41.691804,"name":"黑山县","level":"district","parent":210700},{"adcode":210727,"lng":121.242831,"lat":41.537224,"name":"义县","level":"district","parent":210700},{"adcode":210781,"lng":121.364236,"lat":41.171738,"name":"凌海市","level":"district","parent":210700},{"adcode":210782,"lng":121.795962,"lat":41.598764,"name":"北镇市","level":"district","parent":210700},{"adcode":210800,"lng":122.235151,"lat":40.667432,"name":"营口市","level":"city","parent":210000},{"adcode":210802,"lng":122.253235,"lat":40.669949,"name":"站前区","level":"district","parent":210800},{"adcode":210803,"lng":122.210067,"lat":40.663086,"name":"西市区","level":"district","parent":210800},{"adcode":210804,"lng":122.127242,"lat":40.263646,"name":"鲅鱼圈区","level":"district","parent":210800},{"adcode":210811,"lng":122.382584,"lat":40.682723,"name":"老边区","level":"district","parent":210800},{"adcode":210881,"lng":122.355534,"lat":40.405234,"name":"盖州市","level":"district","parent":210800},{"adcode":210882,"lng":122.505894,"lat":40.633973,"name":"大石桥市","level":"district","parent":210800},{"adcode":210900,"lng":121.648962,"lat":42.011796,"name":"阜新市","level":"city","parent":210000},{"adcode":210902,"lng":121.657639,"lat":42.011162,"name":"海州区","level":"district","parent":210900},{"adcode":210903,"lng":121.790541,"lat":42.086603,"name":"新邱区","level":"district","parent":210900},{"adcode":210904,"lng":121.677575,"lat":42.011145,"name":"太平区","level":"district","parent":210900},{"adcode":210905,"lng":121.42018,"lat":41.780477,"name":"清河门区","level":"district","parent":210900},{"adcode":210911,"lng":121.654791,"lat":42.019218,"name":"细河区","level":"district","parent":210900},{"adcode":210921,"lng":121.743125,"lat":42.058607,"name":"阜新蒙古族自治县","level":"district","parent":210900},{"adcode":210922,"lng":122.537444,"lat":42.384823,"name":"彰武县","level":"district","parent":210900},{"adcode":211000,"lng":123.18152,"lat":41.269402,"name":"辽阳市","level":"city","parent":210000},{"adcode":211002,"lng":123.172611,"lat":41.26745,"name":"白塔区","level":"district","parent":211000},{"adcode":211003,"lng":123.188227,"lat":41.266765,"name":"文圣区","level":"district","parent":211000},{"adcode":211004,"lng":123.200461,"lat":41.205747,"name":"宏伟区","level":"district","parent":211000},{"adcode":211005,"lng":123.431633,"lat":41.157831,"name":"弓长岭区","level":"district","parent":211000},{"adcode":211011,"lng":123.185336,"lat":41.251682,"name":"太子河区","level":"district","parent":211000},{"adcode":211021,"lng":123.079674,"lat":41.216479,"name":"辽阳县","level":"district","parent":211000},{"adcode":211081,"lng":123.325864,"lat":41.427836,"name":"灯塔市","level":"district","parent":211000},{"adcode":211100,"lng":122.06957,"lat":41.124484,"name":"盘锦市","level":"city","parent":210000},{"adcode":211102,"lng":122.055733,"lat":41.190365,"name":"双台子区","level":"district","parent":211100},{"adcode":211103,"lng":122.071624,"lat":41.122423,"name":"兴隆台区","level":"district","parent":211100},{"adcode":211104,"lng":122.071708,"lat":40.994428,"name":"大洼区","level":"district","parent":211100},{"adcode":211122,"lng":121.98528,"lat":41.240701,"name":"盘山县","level":"district","parent":211100},{"adcode":211200,"lng":123.844279,"lat":42.290585,"name":"铁岭市","level":"city","parent":210000},{"adcode":211202,"lng":123.844877,"lat":42.292278,"name":"银州区","level":"district","parent":211200},{"adcode":211204,"lng":124.14896,"lat":42.542978,"name":"清河区","level":"district","parent":211200},{"adcode":211221,"lng":123.725669,"lat":42.223316,"name":"铁岭县","level":"district","parent":211200},{"adcode":211223,"lng":124.72332,"lat":42.738091,"name":"西丰县","level":"district","parent":211200},{"adcode":211224,"lng":124.11017,"lat":42.784441,"name":"昌图县","level":"district","parent":211200},{"adcode":211281,"lng":123.545366,"lat":42.450734,"name":"调兵山市","level":"district","parent":211200},{"adcode":211282,"lng":124.045551,"lat":42.542141,"name":"开原市","level":"district","parent":211200},{"adcode":211300,"lng":120.451176,"lat":41.576758,"name":"朝阳市","level":"city","parent":210000},{"adcode":211302,"lng":120.44877,"lat":41.579389,"name":"双塔区","level":"district","parent":211300},{"adcode":211303,"lng":120.413376,"lat":41.576749,"name":"龙城区","level":"district","parent":211300},{"adcode":211321,"lng":120.404217,"lat":41.526342,"name":"朝阳县","level":"district","parent":211300},{"adcode":211322,"lng":119.642363,"lat":41.402576,"name":"建平县","level":"district","parent":211300},{"adcode":211324,"lng":119.744883,"lat":41.125428,"name":"喀喇沁左翼蒙古族自治县","level":"district","parent":211300},{"adcode":211381,"lng":120.766951,"lat":41.803286,"name":"北票市","level":"district","parent":211300},{"adcode":211382,"lng":119.404789,"lat":41.243086,"name":"凌源市","level":"district","parent":211300},{"adcode":211400,"lng":120.856394,"lat":40.755572,"name":"葫芦岛市","level":"city","parent":210000},{"adcode":211402,"lng":120.85937,"lat":40.755143,"name":"连山区","level":"district","parent":211400},{"adcode":211403,"lng":120.838569,"lat":40.709991,"name":"龙港区","level":"district","parent":211400},{"adcode":211404,"lng":120.752314,"lat":41.098813,"name":"南票区","level":"district","parent":211400},{"adcode":211421,"lng":120.342112,"lat":40.328407,"name":"绥中县","level":"district","parent":211400},{"adcode":211422,"lng":119.807776,"lat":40.812871,"name":"建昌县","level":"district","parent":211400},{"adcode":211481,"lng":120.729365,"lat":40.619413,"name":"兴城市","level":"district","parent":211400},{"adcode":220000,"lng":125.3245,"lat":43.886841,"name":"吉林省","level":"province","parent":100000},{"adcode":220100,"lng":125.3245,"lat":43.886841,"name":"长春市","level":"city","parent":220000},{"adcode":220102,"lng":125.337237,"lat":43.890235,"name":"南关区","level":"district","parent":220100},{"adcode":220103,"lng":125.342828,"lat":43.903823,"name":"宽城区","level":"district","parent":220100},{"adcode":220104,"lng":125.318042,"lat":43.86491,"name":"朝阳区","level":"district","parent":220100},{"adcode":220105,"lng":125.384727,"lat":43.870824,"name":"二道区","level":"district","parent":220100},{"adcode":220106,"lng":125.272467,"lat":43.892177,"name":"绿园区","level":"district","parent":220100},{"adcode":220112,"lng":125.659018,"lat":43.525168,"name":"双阳区","level":"district","parent":220100},{"adcode":220113,"lng":125.844682,"lat":44.157155,"name":"九台区","level":"district","parent":220100},{"adcode":220122,"lng":125.175287,"lat":44.431258,"name":"农安县","level":"district","parent":220100},{"adcode":220182,"lng":126.550107,"lat":44.827642,"name":"榆树市","level":"district","parent":220100},{"adcode":220183,"lng":125.703327,"lat":44.533909,"name":"德惠市","level":"district","parent":220100},{"adcode":220184,"lng":124.817588,"lat":43.509474,"name":"公主岭市","level":"district","parent":220100},{"adcode":220200,"lng":126.55302,"lat":43.843577,"name":"吉林市","level":"city","parent":220000},{"adcode":220202,"lng":126.570766,"lat":43.851118,"name":"昌邑区","level":"district","parent":220200},{"adcode":220203,"lng":126.561429,"lat":43.909755,"name":"龙潭区","level":"district","parent":220200},{"adcode":220204,"lng":126.55239,"lat":43.843804,"name":"船营区","level":"district","parent":220200},{"adcode":220211,"lng":126.560759,"lat":43.816594,"name":"丰满区","level":"district","parent":220200},{"adcode":220221,"lng":126.501622,"lat":43.667416,"name":"永吉县","level":"district","parent":220200},{"adcode":220281,"lng":127.342739,"lat":43.720579,"name":"蛟河市","level":"district","parent":220200},{"adcode":220282,"lng":126.745445,"lat":42.972093,"name":"桦甸市","level":"district","parent":220200},{"adcode":220283,"lng":126.947813,"lat":44.410906,"name":"舒兰市","level":"district","parent":220200},{"adcode":220284,"lng":126.059929,"lat":42.942476,"name":"磐石市","level":"district","parent":220200},{"adcode":220300,"lng":124.370785,"lat":43.170344,"name":"四平市","level":"city","parent":220000},{"adcode":220302,"lng":124.360894,"lat":43.176263,"name":"铁西区","level":"district","parent":220300},{"adcode":220303,"lng":124.388464,"lat":43.16726,"name":"铁东区","level":"district","parent":220300},{"adcode":220322,"lng":124.335802,"lat":43.30831,"name":"梨树县","level":"district","parent":220300},{"adcode":220323,"lng":125.303124,"lat":43.345464,"name":"伊通满族自治县","level":"district","parent":220300},{"adcode":220382,"lng":123.505283,"lat":43.518275,"name":"双辽市","level":"district","parent":220300},{"adcode":220400,"lng":125.145349,"lat":42.902692,"name":"辽源市","level":"city","parent":220000},{"adcode":220402,"lng":125.145164,"lat":42.902702,"name":"龙山区","level":"district","parent":220400},{"adcode":220403,"lng":125.151424,"lat":42.920415,"name":"西安区","level":"district","parent":220400},{"adcode":220421,"lng":125.529623,"lat":42.675228,"name":"东丰县","level":"district","parent":220400},{"adcode":220422,"lng":124.991995,"lat":42.927724,"name":"东辽县","level":"district","parent":220400},{"adcode":220500,"lng":125.936501,"lat":41.721177,"name":"通化市","level":"city","parent":220000},{"adcode":220502,"lng":125.936716,"lat":41.721233,"name":"东昌区","level":"district","parent":220500},{"adcode":220503,"lng":126.045987,"lat":41.777564,"name":"二道江区","level":"district","parent":220500},{"adcode":220521,"lng":125.753121,"lat":41.677918,"name":"通化县","level":"district","parent":220500},{"adcode":220523,"lng":126.042821,"lat":42.683459,"name":"辉南县","level":"district","parent":220500},{"adcode":220524,"lng":125.740536,"lat":42.281484,"name":"柳河县","level":"district","parent":220500},{"adcode":220581,"lng":125.687336,"lat":42.530002,"name":"梅河口市","level":"district","parent":220500},{"adcode":220582,"lng":126.186204,"lat":41.126276,"name":"集安市","level":"district","parent":220500},{"adcode":220600,"lng":126.427839,"lat":41.942505,"name":"白山市","level":"city","parent":220000},{"adcode":220602,"lng":126.428035,"lat":41.943065,"name":"浑江区","level":"district","parent":220600},{"adcode":220605,"lng":126.584229,"lat":42.048109,"name":"江源区","level":"district","parent":220600},{"adcode":220621,"lng":127.273796,"lat":42.332643,"name":"抚松县","level":"district","parent":220600},{"adcode":220622,"lng":126.808386,"lat":42.389689,"name":"靖宇县","level":"district","parent":220600},{"adcode":220623,"lng":128.203384,"lat":41.419361,"name":"长白朝鲜族自治县","level":"district","parent":220600},{"adcode":220681,"lng":126.919296,"lat":41.810689,"name":"临江市","level":"district","parent":220600},{"adcode":220700,"lng":124.823608,"lat":45.118243,"name":"松原市","level":"city","parent":220000},{"adcode":220702,"lng":124.827851,"lat":45.176498,"name":"宁江区","level":"district","parent":220700},{"adcode":220721,"lng":124.826808,"lat":45.116288,"name":"前郭尔罗斯蒙古族自治县","level":"district","parent":220700},{"adcode":220722,"lng":123.985184,"lat":44.276579,"name":"长岭县","level":"district","parent":220700},{"adcode":220723,"lng":124.024361,"lat":45.006846,"name":"乾安县","level":"district","parent":220700},{"adcode":220781,"lng":126.042758,"lat":44.986199,"name":"扶余市","level":"district","parent":220700},{"adcode":220800,"lng":122.841114,"lat":45.619026,"name":"白城市","level":"city","parent":220000},{"adcode":220802,"lng":122.842499,"lat":45.619253,"name":"洮北区","level":"district","parent":220800},{"adcode":220821,"lng":123.202246,"lat":45.846089,"name":"镇赉县","level":"district","parent":220800},{"adcode":220822,"lng":123.088543,"lat":44.80915,"name":"通榆县","level":"district","parent":220800},{"adcode":220881,"lng":122.783779,"lat":45.339113,"name":"洮南市","level":"district","parent":220800},{"adcode":220882,"lng":124.291512,"lat":45.507648,"name":"大安市","level":"district","parent":220800},{"adcode":222400,"lng":129.513228,"lat":42.904823,"name":"延边朝鲜族自治州","level":"city","parent":220000},{"adcode":222401,"lng":129.51579,"lat":42.906964,"name":"延吉市","level":"district","parent":222400},{"adcode":222402,"lng":129.846701,"lat":42.966621,"name":"图们市","level":"district","parent":222400},{"adcode":222403,"lng":128.22986,"lat":43.366921,"name":"敦化市","level":"district","parent":222400},{"adcode":222404,"lng":130.365787,"lat":42.871057,"name":"珲春市","level":"district","parent":222400},{"adcode":222405,"lng":129.425747,"lat":42.771029,"name":"龙井市","level":"district","parent":222400},{"adcode":222406,"lng":129.008748,"lat":42.547004,"name":"和龙市","level":"district","parent":222400},{"adcode":222424,"lng":129.766161,"lat":43.315426,"name":"汪清县","level":"district","parent":222400},{"adcode":222426,"lng":128.901865,"lat":43.110994,"name":"安图县","level":"district","parent":222400},{"adcode":230000,"lng":126.642464,"lat":45.756967,"name":"黑龙江省","level":"province","parent":100000},{"adcode":230100,"lng":126.642464,"lat":45.756967,"name":"哈尔滨市","level":"city","parent":230000},{"adcode":230102,"lng":126.612532,"lat":45.762035,"name":"道里区","level":"district","parent":230100},{"adcode":230103,"lng":126.652098,"lat":45.755971,"name":"南岗区","level":"district","parent":230100},{"adcode":230104,"lng":126.648838,"lat":45.78454,"name":"道外区","level":"district","parent":230100},{"adcode":230108,"lng":126.629257,"lat":45.605567,"name":"平房区","level":"district","parent":230100},{"adcode":230109,"lng":126.563066,"lat":45.814656,"name":"松北区","level":"district","parent":230100},{"adcode":230110,"lng":126.667049,"lat":45.713067,"name":"香坊区","level":"district","parent":230100},{"adcode":230111,"lng":126.603302,"lat":45.98423,"name":"呼兰区","level":"district","parent":230100},{"adcode":230112,"lng":126.972726,"lat":45.538372,"name":"阿城区","level":"district","parent":230100},{"adcode":230113,"lng":126.308784,"lat":45.377942,"name":"双城区","level":"district","parent":230100},{"adcode":230123,"lng":129.565594,"lat":46.315105,"name":"依兰县","level":"district","parent":230100},{"adcode":230124,"lng":128.836131,"lat":45.839536,"name":"方正县","level":"district","parent":230100},{"adcode":230125,"lng":127.48594,"lat":45.759369,"name":"宾县","level":"district","parent":230100},{"adcode":230126,"lng":127.403602,"lat":46.081889,"name":"巴彦县","level":"district","parent":230100},{"adcode":230127,"lng":128.042675,"lat":45.949826,"name":"木兰县","level":"district","parent":230100},{"adcode":230128,"lng":128.747786,"lat":45.977618,"name":"通河县","level":"district","parent":230100},{"adcode":230129,"lng":128.331886,"lat":45.455648,"name":"延寿县","level":"district","parent":230100},{"adcode":230183,"lng":127.968539,"lat":45.214953,"name":"尚志市","level":"district","parent":230100},{"adcode":230184,"lng":127.15759,"lat":44.919418,"name":"五常市","level":"district","parent":230100},{"adcode":230200,"lng":123.95792,"lat":47.342081,"name":"齐齐哈尔市","level":"city","parent":230000},{"adcode":230202,"lng":123.957338,"lat":47.341736,"name":"龙沙区","level":"district","parent":230200},{"adcode":230203,"lng":123.955888,"lat":47.354494,"name":"建华区","level":"district","parent":230200},{"adcode":230204,"lng":123.973555,"lat":47.339499,"name":"铁锋区","level":"district","parent":230200},{"adcode":230205,"lng":123.813181,"lat":47.156867,"name":"昂昂溪区","level":"district","parent":230200},{"adcode":230206,"lng":123.638873,"lat":47.20697,"name":"富拉尔基区","level":"district","parent":230200},{"adcode":230207,"lng":122.887972,"lat":47.51401,"name":"碾子山区","level":"district","parent":230200},{"adcode":230208,"lng":123.754599,"lat":47.311113,"name":"梅里斯达斡尔族区","level":"district","parent":230200},{"adcode":230221,"lng":123.187225,"lat":47.336388,"name":"龙江县","level":"district","parent":230200},{"adcode":230223,"lng":125.307561,"lat":47.890098,"name":"依安县","level":"district","parent":230200},{"adcode":230224,"lng":123.41953,"lat":46.39233,"name":"泰来县","level":"district","parent":230200},{"adcode":230225,"lng":123.506034,"lat":47.917838,"name":"甘南县","level":"district","parent":230200},{"adcode":230227,"lng":124.469106,"lat":47.797172,"name":"富裕县","level":"district","parent":230200},{"adcode":230229,"lng":125.874355,"lat":48.034342,"name":"克山县","level":"district","parent":230200},{"adcode":230230,"lng":126.249094,"lat":48.03732,"name":"克东县","level":"district","parent":230200},{"adcode":230231,"lng":126.091911,"lat":47.607363,"name":"拜泉县","level":"district","parent":230200},{"adcode":230281,"lng":124.882172,"lat":48.481133,"name":"讷河市","level":"district","parent":230200},{"adcode":230300,"lng":130.975966,"lat":45.300046,"name":"鸡西市","level":"city","parent":230000},{"adcode":230302,"lng":130.974374,"lat":45.30034,"name":"鸡冠区","level":"district","parent":230300},{"adcode":230303,"lng":130.910636,"lat":45.213242,"name":"恒山区","level":"district","parent":230300},{"adcode":230304,"lng":130.846823,"lat":45.348812,"name":"滴道区","level":"district","parent":230300},{"adcode":230305,"lng":130.697781,"lat":45.092195,"name":"梨树区","level":"district","parent":230300},{"adcode":230306,"lng":131.010501,"lat":45.338248,"name":"城子河区","level":"district","parent":230300},{"adcode":230307,"lng":130.481126,"lat":45.209607,"name":"麻山区","level":"district","parent":230300},{"adcode":230321,"lng":131.148907,"lat":45.250892,"name":"鸡东县","level":"district","parent":230300},{"adcode":230381,"lng":132.973881,"lat":45.767985,"name":"虎林市","level":"district","parent":230300},{"adcode":230382,"lng":131.874137,"lat":45.54725,"name":"密山市","level":"district","parent":230300},{"adcode":230400,"lng":130.277487,"lat":47.332085,"name":"鹤岗市","level":"city","parent":230000},{"adcode":230402,"lng":130.292478,"lat":47.345372,"name":"向阳区","level":"district","parent":230400},{"adcode":230403,"lng":130.276652,"lat":47.331678,"name":"工农区","level":"district","parent":230400},{"adcode":230404,"lng":130.275533,"lat":47.31324,"name":"南山区","level":"district","parent":230400},{"adcode":230405,"lng":130.236169,"lat":47.252911,"name":"兴安区","level":"district","parent":230400},{"adcode":230406,"lng":130.31714,"lat":47.337385,"name":"东山区","level":"district","parent":230400},{"adcode":230407,"lng":130.30534,"lat":47.35997,"name":"兴山区","level":"district","parent":230400},{"adcode":230421,"lng":130.829087,"lat":47.577577,"name":"萝北县","level":"district","parent":230400},{"adcode":230422,"lng":131.860526,"lat":47.289892,"name":"绥滨县","level":"district","parent":230400},{"adcode":230500,"lng":131.157304,"lat":46.643442,"name":"双鸭山市","level":"city","parent":230000},{"adcode":230502,"lng":131.15896,"lat":46.642961,"name":"尖山区","level":"district","parent":230500},{"adcode":230503,"lng":131.163675,"lat":46.591076,"name":"岭东区","level":"district","parent":230500},{"adcode":230505,"lng":131.333181,"lat":46.594347,"name":"四方台区","level":"district","parent":230500},{"adcode":230506,"lng":131.404294,"lat":46.573366,"name":"宝山区","level":"district","parent":230500},{"adcode":230521,"lng":131.13933,"lat":46.72898,"name":"集贤县","level":"district","parent":230500},{"adcode":230522,"lng":131.810622,"lat":46.775159,"name":"友谊县","level":"district","parent":230500},{"adcode":230523,"lng":132.206415,"lat":46.328781,"name":"宝清县","level":"district","parent":230500},{"adcode":230524,"lng":134.021162,"lat":46.801288,"name":"饶河县","level":"district","parent":230500},{"adcode":230600,"lng":125.11272,"lat":46.590734,"name":"大庆市","level":"city","parent":230000},{"adcode":230602,"lng":125.114643,"lat":46.596356,"name":"萨尔图区","level":"district","parent":230600},{"adcode":230603,"lng":125.145794,"lat":46.573948,"name":"龙凤区","level":"district","parent":230600},{"adcode":230604,"lng":124.868341,"lat":46.653254,"name":"让胡路区","level":"district","parent":230600},{"adcode":230605,"lng":124.889528,"lat":46.403049,"name":"红岗区","level":"district","parent":230600},{"adcode":230606,"lng":124.818509,"lat":46.034304,"name":"大同区","level":"district","parent":230600},{"adcode":230621,"lng":125.273254,"lat":45.708685,"name":"肇州县","level":"district","parent":230600},{"adcode":230622,"lng":125.081974,"lat":45.518832,"name":"肇源县","level":"district","parent":230600},{"adcode":230623,"lng":124.877742,"lat":47.186411,"name":"林甸县","level":"district","parent":230600},{"adcode":230624,"lng":124.446259,"lat":46.865973,"name":"杜尔伯特蒙古族自治县","level":"district","parent":230600},{"adcode":230700,"lng":128.899396,"lat":47.724775,"name":"伊春市","level":"city","parent":230000},{"adcode":230717,"lng":128.907303,"lat":47.728171,"name":"伊美区","level":"district","parent":230700},{"adcode":230718,"lng":128.669859,"lat":47.726728,"name":"乌翠区","level":"district","parent":230700},{"adcode":230719,"lng":128.84075,"lat":47.853778,"name":"友好区","level":"district","parent":230700},{"adcode":230722,"lng":130.397684,"lat":48.891378,"name":"嘉荫县","level":"district","parent":230700},{"adcode":230723,"lng":129.571108,"lat":48.454651,"name":"汤旺县","level":"district","parent":230700},{"adcode":230724,"lng":129.5336,"lat":48.290455,"name":"丰林县","level":"district","parent":230700},{"adcode":230725,"lng":129.020793,"lat":47.028397,"name":"大箐山县","level":"district","parent":230700},{"adcode":230726,"lng":129.28246,"lat":47.137314,"name":"南岔县","level":"district","parent":230700},{"adcode":230751,"lng":129.429117,"lat":47.413074,"name":"金林区","level":"district","parent":230700},{"adcode":230781,"lng":128.030561,"lat":46.985772,"name":"铁力市","level":"district","parent":230700},{"adcode":230800,"lng":130.361634,"lat":46.809606,"name":"佳木斯市","level":"city","parent":230000},{"adcode":230803,"lng":130.361786,"lat":46.809645,"name":"向阳区","level":"district","parent":230800},{"adcode":230804,"lng":130.377684,"lat":46.812345,"name":"前进区","level":"district","parent":230800},{"adcode":230805,"lng":130.403297,"lat":46.822476,"name":"东风区","level":"district","parent":230800},{"adcode":230811,"lng":130.351588,"lat":46.80712,"name":"郊区","level":"district","parent":230800},{"adcode":230822,"lng":130.570112,"lat":46.240118,"name":"桦南县","level":"district","parent":230800},{"adcode":230826,"lng":130.723713,"lat":47.023039,"name":"桦川县","level":"district","parent":230800},{"adcode":230828,"lng":129.904463,"lat":46.730048,"name":"汤原县","level":"district","parent":230800},{"adcode":230881,"lng":132.510119,"lat":47.651131,"name":"同江市","level":"district","parent":230800},{"adcode":230882,"lng":132.037951,"lat":47.250747,"name":"富锦市","level":"district","parent":230800},{"adcode":230883,"lng":134.294501,"lat":48.364707,"name":"抚远市","level":"district","parent":230800},{"adcode":230900,"lng":131.015584,"lat":45.771266,"name":"七台河市","level":"city","parent":230000},{"adcode":230902,"lng":130.889482,"lat":45.794258,"name":"新兴区","level":"district","parent":230900},{"adcode":230903,"lng":131.015848,"lat":45.771217,"name":"桃山区","level":"district","parent":230900},{"adcode":230904,"lng":131.071561,"lat":45.776587,"name":"茄子河区","level":"district","parent":230900},{"adcode":230921,"lng":130.575025,"lat":45.751573,"name":"勃利县","level":"district","parent":230900},{"adcode":231000,"lng":129.618602,"lat":44.582962,"name":"牡丹江市","level":"city","parent":230000},{"adcode":231002,"lng":129.623292,"lat":44.582399,"name":"东安区","level":"district","parent":231000},{"adcode":231003,"lng":129.634645,"lat":44.596328,"name":"阳明区","level":"district","parent":231000},{"adcode":231004,"lng":129.601232,"lat":44.595443,"name":"爱民区","level":"district","parent":231000},{"adcode":231005,"lng":129.61311,"lat":44.581032,"name":"西安区","level":"district","parent":231000},{"adcode":231025,"lng":130.268402,"lat":45.286645,"name":"林口县","level":"district","parent":231000},{"adcode":231081,"lng":131.164856,"lat":44.396864,"name":"绥芬河市","level":"district","parent":231000},{"adcode":231083,"lng":129.387902,"lat":44.574149,"name":"海林市","level":"district","parent":231000},{"adcode":231084,"lng":129.470019,"lat":44.346836,"name":"宁安市","level":"district","parent":231000},{"adcode":231085,"lng":130.527085,"lat":44.91967,"name":"穆棱市","level":"district","parent":231000},{"adcode":231086,"lng":131.125296,"lat":44.063578,"name":"东宁市","level":"district","parent":231000},{"adcode":231100,"lng":127.499023,"lat":50.249585,"name":"黑河市","level":"city","parent":230000},{"adcode":231102,"lng":127.497639,"lat":50.249027,"name":"爱辉区","level":"district","parent":231100},{"adcode":231123,"lng":128.476152,"lat":49.582974,"name":"逊克县","level":"district","parent":231100},{"adcode":231124,"lng":127.327315,"lat":49.423941,"name":"孙吴县","level":"district","parent":231100},{"adcode":231181,"lng":126.508737,"lat":48.245437,"name":"北安市","level":"district","parent":231100},{"adcode":231182,"lng":126.197694,"lat":48.512688,"name":"五大连池市","level":"district","parent":231100},{"adcode":231183,"lng":125.229904,"lat":49.177461,"name":"嫩江市","level":"district","parent":231100},{"adcode":231200,"lng":126.99293,"lat":46.637393,"name":"绥化市","level":"city","parent":230000},{"adcode":231202,"lng":126.990665,"lat":46.634912,"name":"北林区","level":"district","parent":231200},{"adcode":231221,"lng":126.484191,"lat":46.83352,"name":"望奎县","level":"district","parent":231200},{"adcode":231222,"lng":126.289315,"lat":46.259037,"name":"兰西县","level":"district","parent":231200},{"adcode":231223,"lng":126.112268,"lat":46.686596,"name":"青冈县","level":"district","parent":231200},{"adcode":231224,"lng":127.510024,"lat":46.879203,"name":"庆安县","level":"district","parent":231200},{"adcode":231225,"lng":125.907544,"lat":47.183527,"name":"明水县","level":"district","parent":231200},{"adcode":231226,"lng":127.111121,"lat":47.247195,"name":"绥棱县","level":"district","parent":231200},{"adcode":231281,"lng":125.329926,"lat":46.410614,"name":"安达市","level":"district","parent":231200},{"adcode":231282,"lng":125.991402,"lat":46.069471,"name":"肇东市","level":"district","parent":231200},{"adcode":231283,"lng":126.969383,"lat":47.460428,"name":"海伦市","level":"district","parent":231200},{"adcode":232700,"lng":124.711526,"lat":52.335262,"name":"大兴安岭地区","level":"city","parent":230000},{"adcode":232701,"lng":122.536256,"lat":52.972074,"name":"漠河市","level":"district","parent":232700},{"adcode":232718,"lng":124.126716,"lat":50.424654,"name":"加格达奇区","level":"district","parent":232700},{"adcode":232721,"lng":126.662105,"lat":51.726998,"name":"呼玛县","level":"district","parent":232700},{"adcode":232722,"lng":124.710516,"lat":52.335229,"name":"塔河县","level":"district","parent":232700},{"adcode":310000,"lng":121.472644,"lat":31.231706,"name":"上海市","level":"province","parent":100000},{"adcode":310101,"lng":121.490317,"lat":31.222771,"name":"黄浦区","level":"district","parent":310000},{"adcode":310104,"lng":121.43752,"lat":31.179973,"name":"徐汇区","level":"district","parent":310000},{"adcode":310105,"lng":121.4222,"lat":31.218123,"name":"长宁区","level":"district","parent":310000},{"adcode":310106,"lng":121.448224,"lat":31.229003,"name":"静安区","level":"district","parent":310000},{"adcode":310107,"lng":121.392499,"lat":31.241701,"name":"普陀区","level":"district","parent":310000},{"adcode":310109,"lng":121.491832,"lat":31.26097,"name":"虹口区","level":"district","parent":310000},{"adcode":310110,"lng":121.522797,"lat":31.270755,"name":"杨浦区","level":"district","parent":310000},{"adcode":310112,"lng":121.375972,"lat":31.111658,"name":"闵行区","level":"district","parent":310000},{"adcode":310113,"lng":121.489934,"lat":31.398896,"name":"宝山区","level":"district","parent":310000},{"adcode":310114,"lng":121.250333,"lat":31.383524,"name":"嘉定区","level":"district","parent":310000},{"adcode":310115,"lng":121.567706,"lat":31.245944,"name":"浦东新区","level":"district","parent":310000},{"adcode":310116,"lng":121.330736,"lat":30.724697,"name":"金山区","level":"district","parent":310000},{"adcode":310117,"lng":121.223543,"lat":31.03047,"name":"松江区","level":"district","parent":310000},{"adcode":310118,"lng":121.113021,"lat":31.151209,"name":"青浦区","level":"district","parent":310000},{"adcode":310120,"lng":121.458472,"lat":30.912345,"name":"奉贤区","level":"district","parent":310000},{"adcode":310151,"lng":121.397516,"lat":31.626946,"name":"崇明区","level":"district","parent":310000},{"adcode":320000,"lng":118.767413,"lat":32.041544,"name":"江苏省","level":"province","parent":100000},{"adcode":320100,"lng":118.767413,"lat":32.041544,"name":"南京市","level":"city","parent":320000},{"adcode":320102,"lng":118.792199,"lat":32.050678,"name":"玄武区","level":"district","parent":320100},{"adcode":320104,"lng":118.786088,"lat":32.033818,"name":"秦淮区","level":"district","parent":320100},{"adcode":320105,"lng":118.732688,"lat":32.004538,"name":"建邺区","level":"district","parent":320100},{"adcode":320106,"lng":118.769739,"lat":32.066966,"name":"鼓楼区","level":"district","parent":320100},{"adcode":320111,"lng":118.625307,"lat":32.05839,"name":"浦口区","level":"district","parent":320100},{"adcode":320113,"lng":118.808702,"lat":32.102147,"name":"栖霞区","level":"district","parent":320100},{"adcode":320114,"lng":118.77207,"lat":31.995946,"name":"雨花台区","level":"district","parent":320100},{"adcode":320115,"lng":118.850621,"lat":31.953418,"name":"江宁区","level":"district","parent":320100},{"adcode":320116,"lng":118.85065,"lat":32.340655,"name":"六合区","level":"district","parent":320100},{"adcode":320117,"lng":119.028732,"lat":31.653061,"name":"溧水区","level":"district","parent":320100},{"adcode":320118,"lng":118.87589,"lat":31.327132,"name":"高淳区","level":"district","parent":320100},{"adcode":320200,"lng":120.301663,"lat":31.574729,"name":"无锡市","level":"city","parent":320000},{"adcode":320205,"lng":120.357298,"lat":31.585559,"name":"锡山区","level":"district","parent":320200},{"adcode":320206,"lng":120.303543,"lat":31.681019,"name":"惠山区","level":"district","parent":320200},{"adcode":320211,"lng":120.266053,"lat":31.550228,"name":"滨湖区","level":"district","parent":320200},{"adcode":320213,"lng":120.296595,"lat":31.575706,"name":"梁溪区","level":"district","parent":320200},{"adcode":320214,"lng":120.352782,"lat":31.550966,"name":"新吴区","level":"district","parent":320200},{"adcode":320281,"lng":120.275891,"lat":31.910984,"name":"江阴市","level":"district","parent":320200},{"adcode":320282,"lng":119.820538,"lat":31.364384,"name":"宜兴市","level":"district","parent":320200},{"adcode":320300,"lng":117.184811,"lat":34.261792,"name":"徐州市","level":"city","parent":320000},{"adcode":320302,"lng":117.192941,"lat":34.269397,"name":"鼓楼区","level":"district","parent":320300},{"adcode":320303,"lng":117.194589,"lat":34.254805,"name":"云龙区","level":"district","parent":320300},{"adcode":320305,"lng":117.450212,"lat":34.441642,"name":"贾汪区","level":"district","parent":320300},{"adcode":320311,"lng":117.182225,"lat":34.262249,"name":"泉山区","level":"district","parent":320300},{"adcode":320312,"lng":117.183894,"lat":34.19288,"name":"铜山区","level":"district","parent":320300},{"adcode":320321,"lng":116.592888,"lat":34.696946,"name":"丰县","level":"district","parent":320300},{"adcode":320322,"lng":116.937182,"lat":34.729044,"name":"沛县","level":"district","parent":320300},{"adcode":320324,"lng":117.95066,"lat":33.899222,"name":"睢宁县","level":"district","parent":320300},{"adcode":320381,"lng":118.345828,"lat":34.368779,"name":"新沂市","level":"district","parent":320300},{"adcode":320382,"lng":117.963923,"lat":34.314708,"name":"邳州市","level":"district","parent":320300},{"adcode":320400,"lng":119.946973,"lat":31.772752,"name":"常州市","level":"city","parent":320000},{"adcode":320402,"lng":119.963783,"lat":31.779632,"name":"天宁区","level":"district","parent":320400},{"adcode":320404,"lng":119.948388,"lat":31.78096,"name":"钟楼区","level":"district","parent":320400},{"adcode":320411,"lng":119.974654,"lat":31.824664,"name":"新北区","level":"district","parent":320400},{"adcode":320412,"lng":119.958773,"lat":31.718566,"name":"武进区","level":"district","parent":320400},{"adcode":320413,"lng":119.573395,"lat":31.744399,"name":"金坛区","level":"district","parent":320400},{"adcode":320481,"lng":119.487816,"lat":31.427081,"name":"溧阳市","level":"district","parent":320400},{"adcode":320500,"lng":120.619585,"lat":31.299379,"name":"苏州市","level":"city","parent":320000},{"adcode":320505,"lng":120.566833,"lat":31.294845,"name":"虎丘区","level":"district","parent":320500},{"adcode":320506,"lng":120.624621,"lat":31.270839,"name":"吴中区","level":"district","parent":320500},{"adcode":320507,"lng":120.618956,"lat":31.396684,"name":"相城区","level":"district","parent":320500},{"adcode":320508,"lng":120.622249,"lat":31.311414,"name":"姑苏区","level":"district","parent":320500},{"adcode":320509,"lng":120.641601,"lat":31.160404,"name":"吴江区","level":"district","parent":320500},{"adcode":320571,"lng":120.723343,"lat":31.324036,"name":"苏州工业园区","level":"district","parent":320500},{"adcode":320581,"lng":120.74852,"lat":31.658156,"name":"常熟市","level":"district","parent":320500},{"adcode":320582,"lng":120.543441,"lat":31.865553,"name":"张家港市","level":"district","parent":320500},{"adcode":320583,"lng":120.958137,"lat":31.381925,"name":"昆山市","level":"district","parent":320500},{"adcode":320585,"lng":121.112275,"lat":31.452568,"name":"太仓市","level":"district","parent":320500},{"adcode":320600,"lng":120.864608,"lat":32.016212,"name":"南通市","level":"city","parent":320000},{"adcode":320602,"lng":120.86635,"lat":32.015278,"name":"崇川区","level":"district","parent":320600},{"adcode":320612,"lng":121.073171,"lat":32.084287,"name":"通州区","level":"district","parent":320600},{"adcode":320623,"lng":121.186088,"lat":32.311832,"name":"如东县","level":"district","parent":320600},{"adcode":320681,"lng":121.659724,"lat":31.810158,"name":"启东市","level":"district","parent":320600},{"adcode":320682,"lng":120.566324,"lat":32.391591,"name":"如皋市","level":"district","parent":320600},{"adcode":320684,"lng":121.176609,"lat":31.893528,"name":"海门区","level":"district","parent":320600},{"adcode":320685,"lng":120.465995,"lat":32.540288,"name":"海安市","level":"district","parent":320600},{"adcode":320700,"lng":119.178821,"lat":34.600018,"name":"连云港市","level":"city","parent":320000},{"adcode":320703,"lng":119.366487,"lat":34.739529,"name":"连云区","level":"district","parent":320700},{"adcode":320706,"lng":119.179793,"lat":34.601584,"name":"海州区","level":"district","parent":320700},{"adcode":320707,"lng":119.128774,"lat":34.839154,"name":"赣榆区","level":"district","parent":320700},{"adcode":320722,"lng":118.766489,"lat":34.522859,"name":"东海县","level":"district","parent":320700},{"adcode":320723,"lng":119.255741,"lat":34.298436,"name":"灌云县","level":"district","parent":320700},{"adcode":320724,"lng":119.352331,"lat":34.092553,"name":"灌南县","level":"district","parent":320700},{"adcode":320800,"lng":119.021265,"lat":33.597506,"name":"淮安市","level":"city","parent":320000},{"adcode":320803,"lng":119.14634,"lat":33.507499,"name":"淮安区","level":"district","parent":320800},{"adcode":320804,"lng":119.020817,"lat":33.622452,"name":"淮阴区","level":"district","parent":320800},{"adcode":320812,"lng":119.019454,"lat":33.603234,"name":"清江浦区","level":"district","parent":320800},{"adcode":320813,"lng":118.867875,"lat":33.294975,"name":"洪泽区","level":"district","parent":320800},{"adcode":320826,"lng":119.266078,"lat":33.771308,"name":"涟水县","level":"district","parent":320800},{"adcode":320830,"lng":118.493823,"lat":33.00439,"name":"盱眙县","level":"district","parent":320800},{"adcode":320831,"lng":119.016936,"lat":33.018162,"name":"金湖县","level":"district","parent":320800},{"adcode":320900,"lng":120.139998,"lat":33.377631,"name":"盐城市","level":"city","parent":320000},{"adcode":320902,"lng":120.136078,"lat":33.383912,"name":"亭湖区","level":"district","parent":320900},{"adcode":320903,"lng":120.139753,"lat":33.341288,"name":"盐都区","level":"district","parent":320900},{"adcode":320904,"lng":120.470324,"lat":33.199531,"name":"大丰区","level":"district","parent":320900},{"adcode":320921,"lng":119.579573,"lat":34.19996,"name":"响水县","level":"district","parent":320900},{"adcode":320922,"lng":119.828434,"lat":33.989888,"name":"滨海县","level":"district","parent":320900},{"adcode":320923,"lng":119.805338,"lat":33.78573,"name":"阜宁县","level":"district","parent":320900},{"adcode":320924,"lng":120.257444,"lat":33.773779,"name":"射阳县","level":"district","parent":320900},{"adcode":320925,"lng":119.793105,"lat":33.472621,"name":"建湖县","level":"district","parent":320900},{"adcode":320981,"lng":120.314101,"lat":32.853174,"name":"东台市","level":"district","parent":320900},{"adcode":321000,"lng":119.421003,"lat":32.393159,"name":"扬州市","level":"city","parent":320000},{"adcode":321002,"lng":119.442267,"lat":32.392154,"name":"广陵区","level":"district","parent":321000},{"adcode":321003,"lng":119.397777,"lat":32.377899,"name":"邗江区","level":"district","parent":321000},{"adcode":321012,"lng":119.567481,"lat":32.426564,"name":"江都区","level":"district","parent":321000},{"adcode":321023,"lng":119.321284,"lat":33.23694,"name":"宝应县","level":"district","parent":321000},{"adcode":321081,"lng":119.182443,"lat":32.271965,"name":"仪征市","level":"district","parent":321000},{"adcode":321084,"lng":119.443842,"lat":32.785164,"name":"高邮市","level":"district","parent":321000},{"adcode":321100,"lng":119.452753,"lat":32.204402,"name":"镇江市","level":"city","parent":320000},{"adcode":321102,"lng":119.454571,"lat":32.206191,"name":"京口区","level":"district","parent":321100},{"adcode":321111,"lng":119.414877,"lat":32.213501,"name":"润州区","level":"district","parent":321100},{"adcode":321112,"lng":119.433883,"lat":32.128972,"name":"丹徒区","level":"district","parent":321100},{"adcode":321181,"lng":119.581911,"lat":31.991459,"name":"丹阳市","level":"district","parent":321100},{"adcode":321182,"lng":119.828054,"lat":32.237266,"name":"扬中市","level":"district","parent":321100},{"adcode":321183,"lng":119.167135,"lat":31.947355,"name":"句容市","level":"district","parent":321100},{"adcode":321200,"lng":119.915176,"lat":32.484882,"name":"泰州市","level":"city","parent":320000},{"adcode":321202,"lng":119.920187,"lat":32.488406,"name":"海陵区","level":"district","parent":321200},{"adcode":321203,"lng":119.88166,"lat":32.315701,"name":"高港区","level":"district","parent":321200},{"adcode":321204,"lng":120.148208,"lat":32.508483,"name":"姜堰区","level":"district","parent":321200},{"adcode":321281,"lng":119.840162,"lat":32.938065,"name":"兴化市","level":"district","parent":321200},{"adcode":321282,"lng":120.26825,"lat":32.018168,"name":"靖江市","level":"district","parent":321200},{"adcode":321283,"lng":120.020228,"lat":32.168784,"name":"泰兴市","level":"district","parent":321200},{"adcode":321300,"lng":118.275162,"lat":33.963008,"name":"宿迁市","level":"city","parent":320000},{"adcode":321302,"lng":118.278984,"lat":33.937726,"name":"宿城区","level":"district","parent":321300},{"adcode":321311,"lng":118.330012,"lat":33.941071,"name":"宿豫区","level":"district","parent":321300},{"adcode":321322,"lng":118.775889,"lat":34.129097,"name":"沭阳县","level":"district","parent":321300},{"adcode":321323,"lng":118.681284,"lat":33.711433,"name":"泗阳县","level":"district","parent":321300},{"adcode":321324,"lng":118.211824,"lat":33.456538,"name":"泗洪县","level":"district","parent":321300},{"adcode":330000,"lng":120.153576,"lat":30.287459,"name":"浙江省","level":"province","parent":100000},{"adcode":330100,"lng":120.153576,"lat":30.287459,"name":"杭州市","level":"city","parent":330000},{"adcode":330102,"lng":120.171465,"lat":30.250236,"name":"上城区","level":"district","parent":330100},{"adcode":330103,"lng":120.172763,"lat":30.276271,"name":"下城区","level":"district","parent":330100},{"adcode":330104,"lng":120.202633,"lat":30.266603,"name":"江干区","level":"district","parent":330100},{"adcode":330105,"lng":120.150053,"lat":30.314697,"name":"拱墅区","level":"district","parent":330100},{"adcode":330106,"lng":120.147376,"lat":30.272934,"name":"西湖区","level":"district","parent":330100},{"adcode":330108,"lng":120.21062,"lat":30.206615,"name":"滨江区","level":"district","parent":330100},{"adcode":330109,"lng":120.27069,"lat":30.162932,"name":"萧山区","level":"district","parent":330100},{"adcode":330110,"lng":120.301737,"lat":30.421187,"name":"余杭区","level":"district","parent":330100},{"adcode":330111,"lng":119.949869,"lat":30.049871,"name":"富阳区","level":"district","parent":330100},{"adcode":330112,"lng":119.715101,"lat":30.231153,"name":"临安区","level":"district","parent":330100},{"adcode":330122,"lng":119.685045,"lat":29.797437,"name":"桐庐县","level":"district","parent":330100},{"adcode":330127,"lng":119.044276,"lat":29.604177,"name":"淳安县","level":"district","parent":330100},{"adcode":330182,"lng":119.279089,"lat":29.472284,"name":"建德市","level":"district","parent":330100},{"adcode":330200,"lng":121.549792,"lat":29.868388,"name":"宁波市","level":"city","parent":330000},{"adcode":330203,"lng":121.539698,"lat":29.874452,"name":"海曙区","level":"district","parent":330200},{"adcode":330205,"lng":121.559282,"lat":29.888361,"name":"江北区","level":"district","parent":330200},{"adcode":330206,"lng":121.831303,"lat":29.90944,"name":"北仑区","level":"district","parent":330200},{"adcode":330211,"lng":121.713162,"lat":29.952107,"name":"镇海区","level":"district","parent":330200},{"adcode":330212,"lng":121.558436,"lat":29.831662,"name":"鄞州区","level":"district","parent":330200},{"adcode":330213,"lng":121.41089,"lat":29.662348,"name":"奉化区","level":"district","parent":330200},{"adcode":330225,"lng":121.877091,"lat":29.470206,"name":"象山县","level":"district","parent":330200},{"adcode":330226,"lng":121.432606,"lat":29.299836,"name":"宁海县","level":"district","parent":330200},{"adcode":330281,"lng":121.156294,"lat":30.045404,"name":"余姚市","level":"district","parent":330200},{"adcode":330282,"lng":121.248052,"lat":30.177142,"name":"慈溪市","level":"district","parent":330200},{"adcode":330300,"lng":120.672111,"lat":28.000575,"name":"温州市","level":"city","parent":330000},{"adcode":330302,"lng":120.674231,"lat":28.003352,"name":"鹿城区","level":"district","parent":330300},{"adcode":330303,"lng":120.763469,"lat":27.970254,"name":"龙湾区","level":"district","parent":330300},{"adcode":330304,"lng":120.637145,"lat":28.006444,"name":"瓯海区","level":"district","parent":330300},{"adcode":330305,"lng":121.156181,"lat":27.836057,"name":"洞头区","level":"district","parent":330300},{"adcode":330324,"lng":120.690968,"lat":28.153886,"name":"永嘉县","level":"district","parent":330300},{"adcode":330326,"lng":120.564387,"lat":27.6693,"name":"平阳县","level":"district","parent":330300},{"adcode":330327,"lng":120.406256,"lat":27.507743,"name":"苍南县","level":"district","parent":330300},{"adcode":330328,"lng":120.09245,"lat":27.789133,"name":"文成县","level":"district","parent":330300},{"adcode":330329,"lng":119.71624,"lat":27.557309,"name":"泰顺县","level":"district","parent":330300},{"adcode":330381,"lng":120.646171,"lat":27.779321,"name":"瑞安市","level":"district","parent":330300},{"adcode":330382,"lng":120.967147,"lat":28.116083,"name":"乐清市","level":"district","parent":330300},{"adcode":330383,"lng":120.553039,"lat":27.578156,"name":"龙港市","level":"district","parent":330300},{"adcode":330400,"lng":120.750865,"lat":30.762653,"name":"嘉兴市","level":"city","parent":330000},{"adcode":330402,"lng":120.749953,"lat":30.764652,"name":"南湖区","level":"district","parent":330400},{"adcode":330411,"lng":120.720431,"lat":30.763323,"name":"秀洲区","level":"district","parent":330400},{"adcode":330421,"lng":120.921871,"lat":30.841352,"name":"嘉善县","level":"district","parent":330400},{"adcode":330424,"lng":120.942017,"lat":30.522223,"name":"海盐县","level":"district","parent":330400},{"adcode":330481,"lng":120.688821,"lat":30.525544,"name":"海宁市","level":"district","parent":330400},{"adcode":330482,"lng":121.014666,"lat":30.698921,"name":"平湖市","level":"district","parent":330400},{"adcode":330483,"lng":120.551085,"lat":30.629065,"name":"桐乡市","level":"district","parent":330400},{"adcode":330500,"lng":120.102398,"lat":30.867198,"name":"湖州市","level":"city","parent":330000},{"adcode":330502,"lng":120.101416,"lat":30.867252,"name":"吴兴区","level":"district","parent":330500},{"adcode":330503,"lng":120.417195,"lat":30.872742,"name":"南浔区","level":"district","parent":330500},{"adcode":330521,"lng":119.967662,"lat":30.534927,"name":"德清县","level":"district","parent":330500},{"adcode":330522,"lng":119.910122,"lat":31.00475,"name":"长兴县","level":"district","parent":330500},{"adcode":330523,"lng":119.687891,"lat":30.631974,"name":"安吉县","level":"district","parent":330500},{"adcode":330600,"lng":120.582112,"lat":29.997117,"name":"绍兴市","level":"city","parent":330000},{"adcode":330602,"lng":120.585315,"lat":29.996993,"name":"越城区","level":"district","parent":330600},{"adcode":330603,"lng":120.476075,"lat":30.078038,"name":"柯桥区","level":"district","parent":330600},{"adcode":330604,"lng":120.874185,"lat":30.016769,"name":"上虞区","level":"district","parent":330600},{"adcode":330624,"lng":120.905665,"lat":29.501205,"name":"新昌县","level":"district","parent":330600},{"adcode":330681,"lng":120.244326,"lat":29.713662,"name":"诸暨市","level":"district","parent":330600},{"adcode":330683,"lng":120.82888,"lat":29.586606,"name":"嵊州市","level":"district","parent":330600},{"adcode":330700,"lng":119.649506,"lat":29.089524,"name":"金华市","level":"city","parent":330000},{"adcode":330702,"lng":119.652579,"lat":29.082607,"name":"婺城区","level":"district","parent":330700},{"adcode":330703,"lng":119.681264,"lat":29.095835,"name":"金东区","level":"district","parent":330700},{"adcode":330723,"lng":119.819159,"lat":28.896563,"name":"武义县","level":"district","parent":330700},{"adcode":330726,"lng":119.893363,"lat":29.451254,"name":"浦江县","level":"district","parent":330700},{"adcode":330727,"lng":120.44513,"lat":29.052627,"name":"磐安县","level":"district","parent":330700},{"adcode":330781,"lng":119.460521,"lat":29.210065,"name":"兰溪市","level":"district","parent":330700},{"adcode":330782,"lng":120.074911,"lat":29.306863,"name":"义乌市","level":"district","parent":330700},{"adcode":330783,"lng":120.23334,"lat":29.262546,"name":"东阳市","level":"district","parent":330700},{"adcode":330784,"lng":120.036328,"lat":28.895293,"name":"永康市","level":"district","parent":330700},{"adcode":330800,"lng":118.87263,"lat":28.941708,"name":"衢州市","level":"city","parent":330000},{"adcode":330802,"lng":118.873041,"lat":28.944539,"name":"柯城区","level":"district","parent":330800},{"adcode":330803,"lng":118.957683,"lat":28.973195,"name":"衢江区","level":"district","parent":330800},{"adcode":330822,"lng":118.521654,"lat":28.900039,"name":"常山县","level":"district","parent":330800},{"adcode":330824,"lng":118.414435,"lat":29.136503,"name":"开化县","level":"district","parent":330800},{"adcode":330825,"lng":119.172525,"lat":29.031364,"name":"龙游县","level":"district","parent":330800},{"adcode":330881,"lng":118.627879,"lat":28.734674,"name":"江山市","level":"district","parent":330800},{"adcode":330900,"lng":122.106863,"lat":30.016028,"name":"舟山市","level":"city","parent":330000},{"adcode":330902,"lng":122.108496,"lat":30.016423,"name":"定海区","level":"district","parent":330900},{"adcode":330903,"lng":122.301953,"lat":29.945614,"name":"普陀区","level":"district","parent":330900},{"adcode":330921,"lng":122.201132,"lat":30.242865,"name":"岱山县","level":"district","parent":330900},{"adcode":330922,"lng":122.457809,"lat":30.727166,"name":"嵊泗县","level":"district","parent":330900},{"adcode":331000,"lng":121.428599,"lat":28.661378,"name":"台州市","level":"city","parent":330000},{"adcode":331002,"lng":121.431049,"lat":28.67615,"name":"椒江区","level":"district","parent":331000},{"adcode":331003,"lng":121.262138,"lat":28.64488,"name":"黄岩区","level":"district","parent":331000},{"adcode":331004,"lng":121.37292,"lat":28.581799,"name":"路桥区","level":"district","parent":331000},{"adcode":331022,"lng":121.376429,"lat":29.118955,"name":"三门县","level":"district","parent":331000},{"adcode":331023,"lng":121.031227,"lat":29.141126,"name":"天台县","level":"district","parent":331000},{"adcode":331024,"lng":120.735074,"lat":28.849213,"name":"仙居县","level":"district","parent":331000},{"adcode":331081,"lng":121.373611,"lat":28.368781,"name":"温岭市","level":"district","parent":331000},{"adcode":331082,"lng":121.131229,"lat":28.845441,"name":"临海市","level":"district","parent":331000},{"adcode":331083,"lng":121.232337,"lat":28.12842,"name":"玉环市","level":"district","parent":331000},{"adcode":331100,"lng":119.921786,"lat":28.451993,"name":"丽水市","level":"city","parent":330000},{"adcode":331102,"lng":119.922293,"lat":28.451103,"name":"莲都区","level":"district","parent":331100},{"adcode":331121,"lng":120.291939,"lat":28.135247,"name":"青田县","level":"district","parent":331100},{"adcode":331122,"lng":120.078965,"lat":28.654208,"name":"缙云县","level":"district","parent":331100},{"adcode":331123,"lng":119.27589,"lat":28.5924,"name":"遂昌县","level":"district","parent":331100},{"adcode":331124,"lng":119.485292,"lat":28.449937,"name":"松阳县","level":"district","parent":331100},{"adcode":331125,"lng":119.569458,"lat":28.111077,"name":"云和县","level":"district","parent":331100},{"adcode":331126,"lng":119.067233,"lat":27.618231,"name":"庆元县","level":"district","parent":331100},{"adcode":331127,"lng":119.634669,"lat":27.977247,"name":"景宁畲族自治县","level":"district","parent":331100},{"adcode":331181,"lng":119.132319,"lat":28.069177,"name":"龙泉市","level":"district","parent":331100},{"adcode":340000,"lng":117.283042,"lat":31.86119,"name":"安徽省","level":"province","parent":100000},{"adcode":340100,"lng":117.283042,"lat":31.86119,"name":"合肥市","level":"city","parent":340000},{"adcode":340102,"lng":117.315358,"lat":31.86961,"name":"瑶海区","level":"district","parent":340100},{"adcode":340103,"lng":117.283776,"lat":31.869011,"name":"庐阳区","level":"district","parent":340100},